{"features": [{"geometry": {"coordinates": [15.2196575, 37.236936299999996, 0], "type": "Point"}, "properties": {"city_name": "Augusta", "mentions": 6}, "type": "Feature"}, {"geometry": {"coordinates": [4.6388048, 52.3885317, 0], "type": "Point"}, "properties": {"city_name": "Haarlem", "mentions": 1}, "type": "Feature"}, {"geometry": {"coordinates": [101.415695, 54.093952, 0], "type": "Point"}, "properties": {"city_name": "Poltava", "mentions": 1}, "type": "Feature"}, {"geometry": {"coordinates": [-1.4790341, 43.090916, 0], "type": "Point"}, "properties": {"city_name": "Alba", "mentions": 7}, "type": "Feature"}, {"geometry": {"coordinates": [3.2356613, 50.1759602, 0], "type": "Point"}, "properties": {"city_name": "Cambrai", "mentions": 2}, "type": "Feature"}, {"geometry": {"coordinates": [-5.995317099999999, 37.388630299999996, 0], "type": "Point"}, "properties": {"city_name": "Sevilla", "mentions": 4}, "type": "Feature"}, {"geometry": {"coordinates": [10.992412199999999, 45.4384958, 0], "type": "Point"}, "properties": {"city_name": "Verona", "mentions": 1}, "type": "Feature"}, {"geometry": {"coordinates": [5.3258117, 60.3943034, 0], "type": "Point"}, "properties": {"city_name": "Bergen", "mentions": 128}, "type": "Feature"}, {"geometry": {"coordinates": [0.283896428437724, 52.40187065, 0], "type": "Point"}, "properties": {"city_name": "Ely", "mentions": 4}, "type": "Feature"}, {"geometry": {"coordinates": [-5.5682413, 42.5989995, 0], "type": "Point"}, "properties": {"city_name": "Leon", "mentions": 11}, "type": "Feature"}, {"geometry": {"coordinates": [7.463146803781759, 53.2473626, 0], "type": "Point"}, "properties": {"city_name": "Leer", "mentions": 1}, "type": "Feature"}, {"geometry": {"coordinates": [10.3852104, 55.399722499999996, 0], "type": "Point"}, "properties": {"city_name": "Odense", "mentions": 66}, "type": "Feature"}, {"geometry": {"coordinates": [8.694724, 49.40935820000001, 0], "type": "Point"}, "properties": {"city_name": "Heidelberg", "mentions": 7}, "type": "Feature"}, {"geometry": {"coordinates": [3.88924980553989, 51.503114399999994, 0], "type": "Point"}, "properties": {"city_name": "Goes", "mentions": 1}, "type": "Feature"}, {"geometry": {"coordinates": [12.103943800000001, 42.4164974, 0], "type": "Point"}, "properties": {"city_name": "Viterbo", "mentions": 1}, "type": "Feature"}, {"geometry": {"coordinates": [-0.3394758, 53.74357220000001, 0], "type": "Point"}, "properties": {"city_name": "Hull", "mentions": 42}, "type": "Feature"}, {"geometry": {"coordinates": [7.750712700000001, 48.584614, 0], "type": "Point"}, "properties": {"city_name": "Strasbourg", "mentions": 3}, "type": "Feature"}, {"geometry": {"coordinates": [-0.5800364, 44.841225, 0], "type": "Point"}, "properties": {"city_name": "Bordeaux", "mentions": 7}, "type": "Feature"}, {"geometry": {"coordinates": [9.9193939, 57.0482206, 0], "type": "Point"}, "properties": {"city_name": "Aalborg", "mentions": 6}, "type": "Feature"}, {"geometry": {"coordinates": [1.0802533, 51.2800275, 0], "type": "Point"}, "properties": {"city_name": "Canterbury", "mentions": 12}, "type": "Feature"}, {"geometry": {"coordinates": [49.1242266, 55.7823547, 0], "type": "Point"}, "properties": {"city_name": "Kazan'", "mentions": 2}, "type": "Feature"}, {"geometry": {"coordinates": [10.523606599999999, 52.26465770000001, 0], "type": "Point"}, "properties": {"city_name": "Braunschweig", "mentions": 6}, "type": "Feature"}, {"geometry": {"coordinates": [16.460756, 43.514802, 0], "type": "Point"}, "properties": {"city_name": "Split", "mentions": 3}, "type": "Feature"}, {"geometry": {"coordinates": [39.20058579999999, 51.6605982, 0], "type": "Point"}, "properties": {"city_name": "Voronez", "mentions": 21}, "type": "Feature"}, {"geometry": {"coordinates": [10.6945265, 50.9462725, 0], "type": "Point"}, "properties": {"city_name": "Gotha", "mentions": 9}, "type": "Feature"}, {"geometry": {"coordinates": [12.798884, 41.960922, 0], "type": "Point"}, "properties": {"city_name": "Tivoli", "mentions": 1}, "type": "Feature"}, {"geometry": {"coordinates": [12.2017617, 44.4161414, 0], "type": "Point"}, "properties": {"city_name": "Ravenna", "mentions": 3}, "type": "Feature"}, {"geometry": {"coordinates": [8.206887599999998, 44.900542, 0], "type": "Point"}, "properties": {"city_name": "Asti", "mentions": 5}, "type": "Feature"}, {"geometry": {"coordinates": [2.1774322, 41.3828939, 0], "type": "Point"}, "properties": {"city_name": "Barcelona", "mentions": 3}, "type": "Feature"}, {"geometry": {"coordinates": [12.4853384, 41.894802, 0], "type": "Point"}, "properties": {"city_name": "Roma", "mentions": 70}, "type": "Feature"}, {"geometry": {"coordinates": [-2.2441009, 53.4791301, 0], "type": "Point"}, "properties": {"city_name": "Manchester", "mentions": 5}, "type": "Feature"}, {"geometry": {"coordinates": [-1.5758538999999998, 54.7764152, 0], "type": "Point"}, "properties": {"city_name": "Durham", "mentions": 1}, "type": "Feature"}, {"geometry": {"coordinates": [3.226772, 51.208552600000004, 0], "type": "Point"}, "properties": {"city_name": "Brugge", "mentions": 2}, "type": "Feature"}, {"geometry": {"coordinates": [-2.2904086, 53.59640970000001, 0], "type": "Point"}, "properties": {"city_name": "Bury", "mentions": 2}, "type": "Feature"}, {"geometry": {"coordinates": [2.5846582000000002, 49.2065404, 0], "type": "Point"}, "properties": {"city_name": "Senlis", "mentions": 1}, "type": "Feature"}, {"geometry": {"coordinates": [30.3992326, 59.717761800000005, 0], "type": "Point"}, "properties": {"city_name": "Odessa", "mentions": 1}, "type": "Feature"}, {"geometry": {"coordinates": [-2.5176602999999997, 52.70003570000001, 0], "type": "Point"}, "properties": {"city_name": "Wellington", "mentions": 1}, "type": "Feature"}, {"geometry": {"coordinates": [12.3747329, 51.3406321, 0], "type": "Point"}, "properties": {"city_name": "Leipzig", "mentions": 10}, "type": "Feature"}, {"geometry": {"coordinates": [21.7910016, 61.486723600000005, 0], "type": "Point"}, "properties": {"city_name": "Pori", "mentions": 1}, "type": "Feature"}, {"geometry": {"coordinates": [9.738553199999998, 52.374477899999995, 0], "type": "Point"}, "properties": {"city_name": "Hannover", "mentions": 15}, "type": "Feature"}, {"geometry": {"coordinates": [0.46540700966397097, 46.61211655, 0], "type": "Point"}, "properties": {"city_name": "Vienne", "mentions": 1}, "type": "Feature"}, {"geometry": {"coordinates": [11.3290855, 50.980281299999994, 0], "type": "Point"}, "properties": {"city_name": "Weimar", "mentions": 21}, "type": "Feature"}, {"geometry": {"coordinates": [7.5878261, 47.55810770000001, 0], "type": "Point"}, "properties": {"city_name": "Basel", "mentions": 71}, "type": "Feature"}, {"geometry": {"coordinates": [13.793563, 37.29354, 0], "type": "Point"}, "properties": {"city_name": "Naro", "mentions": 1}, "type": "Feature"}, {"geometry": {"coordinates": [38.500949, 52.609361, 0], "type": "Point"}, "properties": {"city_name": "Elec", "mentions": 3}, "type": "Feature"}, {"geometry": {"coordinates": [21.0714111288323, 52.2337172, 0], "type": "Point"}, "properties": {"city_name": "Warszawa", "mentions": 9}, "type": "Feature"}, {"geometry": {"coordinates": [-8.34873166552471, 37.26398255, 0], "type": "Point"}, "properties": {"city_name": "Silves", "mentions": 1}, "type": "Feature"}, {"geometry": {"coordinates": [41.713809999999995, 54.025643, 0], "type": "Point"}, "properties": {"city_name": "Sack", "mentions": 1}, "type": "Feature"}, {"geometry": {"coordinates": [22.7259515, 37.6353109, 0], "type": "Point"}, "properties": {"city_name": "Argos", "mentions": 2}, "type": "Feature"}, {"geometry": {"coordinates": [9.5653284, 54.51851, 0], "type": "Point"}, "properties": {"city_name": "Schleswig", "mentions": 52}, "type": "Feature"}, {"geometry": {"coordinates": [17.996423, 40.05672, 0], "type": "Point"}, "properties": {"city_name": "Gallipoli", "mentions": 4}, "type": "Feature"}, {"geometry": {"coordinates": [-1.1492773, 52.9534161, 0], "type": "Point"}, "properties": {"city_name": "Nottingham", "mentions": 2}, "type": "Feature"}, {"geometry": {"coordinates": [5.2408138, 50.518085600000006, 0], "type": "Point"}, "properties": {"city_name": "Huy", "mentions": 1}, "type": "Feature"}, {"geometry": {"coordinates": [2.1478990000000002, 43.9277552, 0], "type": "Point"}, "properties": {"city_name": "Albi", "mentions": 1}, "type": "Feature"}, {"geometry": {"coordinates": [3.0706414, 50.630508899999995, 0], "type": "Point"}, "properties": {"city_name": "Lille", "mentions": 13}, "type": "Feature"}, {"geometry": {"coordinates": [5.3699525, 43.2961743, 0], "type": "Point"}, "properties": {"city_name": "Marseille", "mentions": 2}, "type": "Feature"}, {"geometry": {"coordinates": [-4.1241494, 40.950215899999996, 0], "type": "Point"}, "properties": {"city_name": "Segovia", "mentions": 1}, "type": "Feature"}, {"geometry": {"coordinates": [13.2461296, 52.84554920000001, 0], "type": "Point"}, "properties": {"city_name": "Brandenburg", "mentions": 7}, "type": "Feature"}, {"geometry": {"coordinates": [8.4034195, 49.006870500000005, 0], "type": "Point"}, "properties": {"city_name": "Karlsruhe", "mentions": 1}, "type": "Feature"}, {"geometry": {"coordinates": [10.037147599999999, 56.461754500000005, 0], "type": "Point"}, "properties": {"city_name": "Randers", "mentions": 7}, "type": "Feature"}, {"geometry": {"coordinates": [37.6176606, 55.7507178, 0], "type": "Point"}, "properties": {"city_name": "Moskva", "mentions": 36}, "type": "Feature"}, {"geometry": {"coordinates": [16.366238199999998, 56.6628826, 0], "type": "Point"}, "properties": {"city_name": "Kalmar", "mentions": 35}, "type": "Feature"}, {"geometry": {"coordinates": [5.4925463, 47.0921047, 0], "type": "Point"}, "properties": {"city_name": "Dole", "mentions": 1}, "type": "Feature"}, {"geometry": {"coordinates": [-3.5269108, 50.725562, 0], "type": "Point"}, "properties": {"city_name": "Exeter", "mentions": 5}, "type": "Feature"}, {"geometry": {"coordinates": [-3.1902352, 55.9496416, 0], "type": "Point"}, "properties": {"city_name": "Edinburgh", "mentions": 9}, "type": "Feature"}, {"geometry": {"coordinates": [11.4148038, 53.628829700000004, 0], "type": "Point"}, "properties": {"city_name": "Schwerin", "mentions": 14}, "type": "Feature"}, {"geometry": {"coordinates": [4.351697, 50.8465573, 0], "type": "Point"}, "properties": {"city_name": "Bruxelles", "mentions": 8}, "type": "Feature"}, {"geometry": {"coordinates": [11.546591099999999, 51.5283282, 0], "type": "Point"}, "properties": {"city_name": "Eisleben", "mentions": 1}, "type": "Feature"}, {"geometry": {"coordinates": [9.6874573, 45.362828, 0], "type": "Point"}, "properties": {"city_name": "Crema", "mentions": 5}, "type": "Feature"}, {"geometry": {"coordinates": [4.832226599999999, 46.3036683, 0], "type": "Point"}, "properties": {"city_name": "Macon", "mentions": 1}, "type": "Feature"}, {"geometry": {"coordinates": [12.7363357, 42.735512400000005, 0], "type": "Point"}, "properties": {"city_name": "Spoleto", "mentions": 1}, "type": "Feature"}, {"geometry": {"coordinates": [-2.0928095, 57.1482429, 0], "type": "Point"}, "properties": {"city_name": "Aberdeen", "mentions": 3}, "type": "Feature"}, {"geometry": {"coordinates": [4.8059012, 43.9492493, 0], "type": "Point"}, "properties": {"city_name": "Avignon", "mentions": 1}, "type": "Feature"}, {"geometry": {"coordinates": [-1.0815361000000001, 53.959055500000005, 0], "type": "Point"}, "properties": {"city_name": "York", "mentions": 19}, "type": "Feature"}, {"geometry": {"coordinates": [14.209717600000001, 41.1079984, 0], "type": "Point"}, "properties": {"city_name": "Capua", "mentions": 2}, "type": "Feature"}, {"geometry": {"coordinates": [9.9193939, 57.0482206, 0], "type": "Point"}, "properties": {"city_name": "Ålborg", "mentions": 10}, "type": "Feature"}, {"geometry": {"coordinates": [-2.5972985, 51.453802200000005, 0], "type": "Point"}, "properties": {"city_name": "Bristol", "mentions": 1}, "type": "Feature"}, {"geometry": {"coordinates": [8.288627799999999, 51.4387667, 0], "type": "Point"}, "properties": {"city_name": "Halle", "mentions": 5}, "type": "Feature"}, {"geometry": {"coordinates": [11.464793199999999, 53.89098320000001, 0], "type": "Point"}, "properties": {"city_name": "Wismar", "mentions": 13}, "type": "Feature"}, {"geometry": {"coordinates": [20.7708973, 47.6101406, 0], "type": "Point"}, "properties": {"city_name": "Buda", "mentions": 2}, "type": "Feature"}, {"geometry": {"coordinates": [8.6742306, 50.5862066, 0], "type": "Point"}, "properties": {"city_name": "Giessen", "mentions": 2}, "type": "Feature"}, {"geometry": {"coordinates": [10.6926437, 50.6086518, 0], "type": "Point"}, "properties": {"city_name": "Suhl", "mentions": 1}, "type": "Feature"}, {"geometry": {"coordinates": [13.260278099999999, 53.557445799999996, 0], "type": "Point"}, "properties": {"city_name": "Neubrandenburg", "mentions": 2}, "type": "Feature"}, {"geometry": {"coordinates": [10.7389701, 59.913330099999996, 0], "type": "Point"}, "properties": {"city_name": "Oslo", "mentions": 54}, "type": "Feature"}, {"geometry": {"coordinates": [1.7706903999999999, 45.2678158, 0], "type": "Point"}, "properties": {"city_name": "Tulle", "mentions": 1}, "type": "Feature"}, {"geometry": {"coordinates": [13.5170982, 43.6170137, 0], "type": "Point"}, "properties": {"city_name": "Ancona", "mentions": 1}, "type": "Feature"}, {"geometry": {"coordinates": [6.235143099999999, 44.0918144, 0], "type": "Point"}, "properties": {"city_name": "Digne", "mentions": 1}, "type": "Feature"}, {"geometry": {"coordinates": [26.9281768, 46.924875799999995, 0], "type": "Point"}, "properties": {"city_name": "Roman", "mentions": 61}, "type": "Feature"}, {"geometry": {"coordinates": [15.5866422, 56.162107299999995, 0], "type": "Point"}, "properties": {"city_name": "Karlskrona", "mentions": 3}, "type": "Feature"}, {"geometry": {"coordinates": [4.031926, 49.2577886, 0], "type": "Point"}, "properties": {"city_name": "Reims", "mentions": 8}, "type": "Feature"}, {"geometry": {"coordinates": [2.3772525, 51.0347708, 0], "type": "Point"}, "properties": {"city_name": "Dunkerque", "mentions": 4}, "type": "Feature"}, {"geometry": {"coordinates": [19.1278294, 47.778287299999995, 0], "type": "Point"}, "properties": {"city_name": "Vac", "mentions": 1}, "type": "Feature"}, {"geometry": {"coordinates": [8.651177, 49.872775, 0], "type": "Point"}, "properties": {"city_name": "Darmstadt", "mentions": 2}, "type": "Feature"}, {"geometry": {"coordinates": [6.1296751, 49.8158683, 0], "type": "Point"}, "properties": {"city_name": "Luxemburg", "mentions": 1}, "type": "Feature"}, {"geometry": {"coordinates": [7.849400500000001, 47.9960901, 0], "type": "Point"}, "properties": {"city_name": "Freiburg", "mentions": 15}, "type": "Feature"}, {"geometry": {"coordinates": [13.460974400000001, 48.5748229, 0], "type": "Point"}, "properties": {"city_name": "Passau", "mentions": 1}, "type": "Feature"}, {"geometry": {"coordinates": [4.4811088666204295, 52.1518157, 0], "type": "Point"}, "properties": {"city_name": "Leiden", "mentions": 8}, "type": "Feature"}, {"geometry": {"coordinates": [13.3524434, 38.1112268, 0], "type": "Point"}, "properties": {"city_name": "Palermo", "mentions": 1}, "type": "Feature"}, {"geometry": {"coordinates": [13.000156599999999, 55.6052931, 0], "type": "Point"}, "properties": {"city_name": "Malmoe", "mentions": 4}, "type": "Feature"}, {"geometry": {"coordinates": [142.13213480000002, 46.8166594, 0], "type": "Point"}, "properties": {"city_name": "Riga", "mentions": 6}, "type": "Feature"}, {"geometry": {"coordinates": [1.1076133, 41.1555564, 0], "type": "Point"}, "properties": {"city_name": "Reus", "mentions": 2}, "type": "Feature"}, {"geometry": {"coordinates": [24.9425683, 60.1674086, 0], "type": "Point"}, "properties": {"city_name": "Helsinki", "mentions": 1}, "type": "Feature"}, {"geometry": {"coordinates": [-0.7024738, 49.2764624, 0], "type": "Point"}, "properties": {"city_name": "Bayeux", "mentions": 5}, "type": "Feature"}, {"geometry": {"coordinates": [2.0823355, 49.43009970000001, 0], "type": "Point"}, "properties": {"city_name": "Beauvais", "mentions": 12}, "type": "Feature"}, {"geometry": {"coordinates": [10.964463, 50.258112, 0], "type": "Point"}, "properties": {"city_name": "Coburg", "mentions": 1}, "type": "Feature"}, {"geometry": {"coordinates": [22.2670522, 60.4517531, 0], "type": "Point"}, "properties": {"city_name": "Turku", "mentions": 1}, "type": "Feature"}, {"geometry": {"coordinates": [9.9513046, 52.1521636, 0], "type": "Point"}, "properties": {"city_name": "Hildesheim", "mentions": 1}, "type": "Feature"}, {"geometry": {"coordinates": [9.6947461, 45.0534751, 0], "type": "Point"}, "properties": {"city_name": "Piacenza", "mentions": 2}, "type": "Feature"}, {"geometry": {"coordinates": [10.4018624, 43.715939500000005, 0], "type": "Point"}, "properties": {"city_name": "Pisa", "mentions": 1}, "type": "Feature"}, {"geometry": {"coordinates": [1.3408308999999998, 51.2752527, 0], "type": "Point"}, "properties": {"city_name": "Sandwich", "mentions": 1}, "type": "Feature"}, {"geometry": {"coordinates": [19.9970637622827, 50.04691015, 0], "type": "Point"}, "properties": {"city_name": "Krakow", "mentions": 10}, "type": "Feature"}, {"geometry": {"coordinates": [6.6441878, 49.7596208, 0], "type": "Point"}, "properties": {"city_name": "Trier", "mentions": 13}, "type": "Feature"}, {"geometry": {"coordinates": [8.467236, 49.489591, 0], "type": "Point"}, "properties": {"city_name": "Mannheim", "mentions": 1}, "type": "Feature"}, {"geometry": {"coordinates": [10.2134046, 56.14962779999999, 0], "type": "Point"}, "properties": {"city_name": "Aarhus", "mentions": 13}, "type": "Feature"}, {"geometry": {"coordinates": [15.438571599999998, 47.0702563, 0], "type": "Point"}, "properties": {"city_name": "Graz", "mentions": 3}, "type": "Feature"}, {"geometry": {"coordinates": [12.0796208, 50.877230100000006, 0], "type": "Point"}, "properties": {"city_name": "Gera", "mentions": 2}, "type": "Feature"}, {"geometry": {"coordinates": [-1.8604874, 53.72292289999999, 0], "type": "Point"}, "properties": {"city_name": "Halifax", "mentions": 5}, "type": "Feature"}, {"geometry": {"coordinates": [12.5700724, 55.6867243, 0], "type": "Point"}, "properties": {"city_name": "Kjøbenhavn", "mentions": 17}, "type": "Feature"}, {"geometry": {"coordinates": [8.540868, 52.010877, 0], "type": "Point"}, "properties": {"city_name": "Bielefeld", "mentions": 1}, "type": "Feature"}, {"geometry": {"coordinates": [3.282606, 48.1978559, 0], "type": "Point"}, "properties": {"city_name": "Sens", "mentions": 2}, "type": "Feature"}, {"geometry": {"coordinates": [4.308511, 52.061507, 0], "type": "Point"}, "properties": {"city_name": "Hague", "mentions": 1}, "type": "Feature"}, {"geometry": {"coordinates": [25.9542057, 43.84804129999999, 0], "type": "Point"}, "properties": {"city_name": "Ruse", "mentions": 2}, "type": "Feature"}, {"geometry": {"coordinates": [-5.166591599999999, 36.7421339, 0], "type": "Point"}, "properties": {"city_name": "Ronda", "mentions": 1}, "type": "Feature"}, {"geometry": {"coordinates": [0.340196, 46.580259600000005, 0], "type": "Point"}, "properties": {"city_name": "Poitiers", "mentions": 10}, "type": "Feature"}, {"geometry": {"coordinates": [10.8986971, 48.3668041, 0], "type": "Point"}, "properties": {"city_name": "Augsburg", "mentions": 1}, "type": "Feature"}, {"geometry": {"coordinates": [-1.4761491000000002, 52.92126170000001, 0], "type": "Point"}, "properties": {"city_name": "Derby", "mentions": 1}, "type": "Feature"}, {"geometry": {"coordinates": [3.2988089, 48.5602959, 0], "type": "Point"}, "properties": {"city_name": "Provins", "mentions": 4}, "type": "Feature"}, {"geometry": {"coordinates": [8.214601700000001, 53.138975300000006, 0], "type": "Point"}, "properties": {"city_name": "Oldenburg", "mentions": 16}, "type": "Feature"}, {"geometry": {"coordinates": [12.1286127, 54.09244449999999, 0], "type": "Point"}, "properties": {"city_name": "Rostock", "mentions": 55}, "type": "Feature"}, {"geometry": {"coordinates": [1.0939658, 49.4404591, 0], "type": "Point"}, "properties": {"city_name": "Rouen", "mentions": 3}, "type": "Feature"}, {"geometry": {"coordinates": [-2.0820103, 52.511472700000006, 0], "type": "Point"}, "properties": {"city_name": "Dudley", "mentions": 2}, "type": "Feature"}, {"geometry": {"coordinates": [10.3951929, 63.4305658, 0], "type": "Point"}, "properties": {"city_name": "Trondheim", "mentions": 2}, "type": "Feature"}, {"geometry": {"coordinates": [-121.87676640000001, 37.239243, 0], "type": "Point"}, "properties": {"city_name": "Porto", "mentions": 3}, "type": "Feature"}, {"geometry": {"coordinates": [10.309145599999999, 43.5507411, 0], "type": "Point"}, "properties": {"city_name": "Livorno", "mentions": 1}, "type": "Feature"}, {"geometry": {"coordinates": [12.2455414, 45.6658505, 0], "type": "Point"}, "properties": {"city_name": "Treviso", "mentions": 1}, "type": "Feature"}, {"geometry": {"coordinates": [27.915085499999996, 43.206902500000005, 0], "type": "Point"}, "properties": {"city_name": "Varna", "mentions": 1}, "type": "Feature"}, {"geometry": {"coordinates": [22.554677565192698, 51.2181945, 0], "type": "Point"}, "properties": {"city_name": "Lublin", "mentions": 3}, "type": "Feature"}, {"geometry": {"coordinates": [3.6959771, 43.4014434, 0], "type": "Point"}, "properties": {"city_name": "Sete", "mentions": 8}, "type": "Feature"}, {"geometry": {"coordinates": [-5.3939824, 41.5216963, 0], "type": "Point"}, "properties": {"city_name": "Toro", "mentions": 1}, "type": "Feature"}, {"geometry": {"coordinates": [0.6889268, 47.3900474, 0], "type": "Point"}, "properties": {"city_name": "Tours", "mentions": 7}, "type": "Feature"}, {"geometry": {"coordinates": [-2.0525828379987203, 48.45528935, 0], "type": "Point"}, "properties": {"city_name": "Dinan", "mentions": 1}, "type": "Feature"}, {"geometry": {"coordinates": [20.964058426962303, 50.025988299999995, 0], "type": "Point"}, "properties": {"city_name": "Tarnow", "mentions": 1}, "type": "Feature"}, {"geometry": {"coordinates": [5.7324722, 58.968042700000005, 0], "type": "Point"}, "properties": {"city_name": "Stavanger", "mentions": 5}, "type": "Feature"}, {"geometry": {"coordinates": [10.2134046, 56.14962779999999, 0], "type": "Point"}, "properties": {"city_name": "Århus", "mentions": 42}, "type": "Feature"}, {"geometry": {"coordinates": [7.0028334, 51.3882195, 0], "type": "Point"}, "properties": {"city_name": "Werden", "mentions": 2}, "type": "Feature"}, {"geometry": {"coordinates": [9.4059354, 56.4469128, 0], "type": "Point"}, "properties": {"city_name": "Viborg", "mentions": 67}, "type": "Feature"}, {"geometry": {"coordinates": [13.5713017, 37.8250916, 0], "type": "Point"}, "properties": {"city_name": "Vicari", "mentions": 2}, "type": "Feature"}, {"geometry": {"coordinates": [8.3603088, 49.6352685, 0], "type": "Point"}, "properties": {"city_name": "Worms", "mentions": 15}, "type": "Feature"}, {"geometry": {"coordinates": [8.8071646, 53.0758196, 0], "type": "Point"}, "properties": {"city_name": "Bremen", "mentions": 60}, "type": "Feature"}, {"geometry": {"coordinates": [8.054275800000001, 45.5664109, 0], "type": "Point"}, "properties": {"city_name": "Biella", "mentions": 1}, "type": "Feature"}, {"geometry": {"coordinates": [21.905737, 43.322489000000004, 0], "type": "Point"}, "properties": {"city_name": "Nis", "mentions": 12}, "type": "Feature"}, {"geometry": {"coordinates": [-0.9696511999999999, 51.456659, 0], "type": "Point"}, "properties": {"city_name": "Reading", "mentions": 1}, "type": "Feature"}, {"geometry": {"coordinates": [-5.653252200000001, 43.525135299999995, 0], "type": "Point"}, "properties": {"city_name": "Albuquerque", "mentions": 1}, "type": "Feature"}, {"geometry": {"coordinates": [1.29227, 52.628606000000005, 0], "type": "Point"}, "properties": {"city_name": "Norwich", "mentions": 1}, "type": "Feature"}, {"geometry": {"coordinates": [10.328083300000001, 44.801367799999994, 0], "type": "Point"}, "properties": {"city_name": "Parma", "mentions": 1}, "type": "Feature"}, {"geometry": {"coordinates": [6.0243246, 47.237953000000005, 0], "type": "Point"}, "properties": {"city_name": "Besancon", "mentions": 3}, "type": "Feature"}, {"geometry": {"coordinates": [2.2545943, 41.9302021, 0], "type": "Point"}, "properties": {"city_name": "Vich", "mentions": 4}, "type": "Feature"}, {"geometry": {"coordinates": [16.9781963305126, 51.126310600000004, 0], "type": "Point"}, "properties": {"city_name": "Wroclaw", "mentions": 1}, "type": "Feature"}, {"geometry": {"coordinates": [-0.023983599999999997, 52.97704079999999, 0], "type": "Point"}, "properties": {"city_name": "Boston", "mentions": 5}, "type": "Feature"}, {"geometry": {"coordinates": [5.5734203, 50.6451381, 0], "type": "Point"}, "properties": {"city_name": "Liege", "mentions": 1}, "type": "Feature"}, {"geometry": {"coordinates": [10.0248716, 45.1334796, 0], "type": "Point"}, "properties": {"city_name": "Cremona", "mentions": 1}, "type": "Feature"}, {"geometry": {"coordinates": [9.1904984, 45.4667971, 0], "type": "Point"}, "properties": {"city_name": "Milano", "mentions": 16}, "type": "Feature"}, {"geometry": {"coordinates": [22.348744268808304, 37.52646585, 0], "type": "Point"}, "properties": {"city_name": "Tripolis", "mentions": 1}, "type": "Feature"}, {"geometry": {"coordinates": [11.003645, 49.5981187, 0], "type": "Point"}, "properties": {"city_name": "Erlangen", "mentions": 1}, "type": "Feature"}, {"geometry": {"coordinates": [17.64112, 59.859412600000006, 0], "type": "Point"}, "properties": {"city_name": "Uppsala", "mentions": 70}, "type": "Feature"}, {"geometry": {"coordinates": [10.1395519, 44.0359323, 0], "type": "Point"}, "properties": {"city_name": "Massa", "mentions": 1}, "type": "Feature"}, {"geometry": {"coordinates": [4.943340900000001, 49.7033759, 0], "type": "Point"}, "properties": {"city_name": "Sedan", "mentions": 3}, "type": "Feature"}, {"geometry": {"coordinates": [4.8661892, 50.4665284, 0], "type": "Point"}, "properties": {"city_name": "Namur", "mentions": 1}, "type": "Feature"}, {"geometry": {"coordinates": [9.1546375, 45.18600429999999, 0], "type": "Point"}, "properties": {"city_name": "Pavia", "mentions": 26}, "type": "Feature"}, {"geometry": {"coordinates": [12.0974869, 49.0195333, 0], "type": "Point"}, "properties": {"city_name": "Regensburg", "mentions": 8}, "type": "Feature"}, {"geometry": {"coordinates": [4.2374349, 50.7360524, 0], "type": "Point"}, "properties": {"city_name": "Halle", "mentions": 5}, "type": "Feature"}, {"geometry": {"coordinates": [11.7391606, 51.793078799999996, 0], "type": "Point"}, "properties": {"city_name": "Bernburg", "mentions": 1}, "type": "Feature"}, {"geometry": {"coordinates": [4.48862326925829, 51.92779805, 0], "type": "Point"}, "properties": {"city_name": "Rotterdam", "mentions": 1}, "type": "Feature"}, {"geometry": {"coordinates": [1.4031552, 51.2150789, 0], "type": "Point"}, "properties": {"city_name": "Deal", "mentions": 1}, "type": "Feature"}, {"geometry": {"coordinates": [11.7439565, 48.400827299999996, 0], "type": "Point"}, "properties": {"city_name": "Freising", "mentions": 9}, "type": "Feature"}, {"geometry": {"coordinates": [13.388859900000002, 52.517036499999996, 0], "type": "Point"}, "properties": {"city_name": "Berlin", "mentions": 217}, "type": "Feature"}, {"geometry": {"coordinates": [-4.033442, 55.7759095, 0], "type": "Point"}, "properties": {"city_name": "Hamilton", "mentions": 6}, "type": "Feature"}, {"geometry": {"coordinates": [0.1235817, 52.2034823, 0], "type": "Point"}, "properties": {"city_name": "Cambridge", "mentions": 26}, "type": "Feature"}, {"geometry": {"coordinates": [39.716485999999996, 47.224694899999996, 0], "type": "Point"}, "properties": {"city_name": "Rostov", "mentions": 16}, "type": "Feature"}, {"geometry": {"coordinates": [3.7769485, 50.6311349, 0], "type": "Point"}, "properties": {"city_name": "Ath", "mentions": 24}, "type": "Feature"}, {"geometry": {"coordinates": [16.372504199999998, 48.2083537, 0], "type": "Point"}, "properties": {"city_name": "Wien", "mentions": 65}, "type": "Feature"}, {"geometry": {"coordinates": [12.081924699999998, 55.6433478, 0], "type": "Point"}, "properties": {"city_name": "Roskilde", "mentions": 253}, "type": "Feature"}, {"geometry": {"coordinates": [7.3738413000000005, 44.78549879999999, 0], "type": "Point"}, "properties": {"city_name": "Cavour", "mentions": 1}, "type": "Feature"}, {"geometry": {"coordinates": [9.503263, 45.3138959, 0], "type": "Point"}, "properties": {"city_name": "Lodi", "mentions": 4}, "type": "Feature"}, {"geometry": {"coordinates": [-0.0045417, 51.4820845, 0], "type": "Point"}, "properties": {"city_name": "Greenwich", "mentions": 1}, "type": "Feature"}, {"geometry": {"coordinates": [37.617540000000005, 54.193032099999996, 0], "type": "Point"}, "properties": {"city_name": "Tula", "mentions": 3}, "type": "Feature"}, {"geometry": {"coordinates": [-1.29599212115953, 46.78251545, 0], "type": "Point"}, "properties": {"city_name": "Boulogne", "mentions": 1}, "type": "Feature"}, {"geometry": {"coordinates": [-0.7692125, 38.3459902, 0], "type": "Point"}, "properties": {"city_name": "Aspe", "mentions": 7}, "type": "Feature"}, {"geometry": {"coordinates": [6.6327025, 46.5218269, 0], "type": "Point"}, "properties": {"city_name": "Lausanne", "mentions": 2}, "type": "Feature"}, {"geometry": {"coordinates": [-1.2578499, 51.7520131, 0], "type": "Point"}, "properties": {"city_name": "Oxford", "mentions": 31}, "type": "Feature"}, {"geometry": {"coordinates": [9.4333264, 54.78330210000001, 0], "type": "Point"}, "properties": {"city_name": "Flensburg", "mentions": 9}, "type": "Feature"}, {"geometry": {"coordinates": [11.659796, 45.2240069, 0], "type": "Point"}, "properties": {"city_name": "Este", "mentions": 2}, "type": "Feature"}, {"geometry": {"coordinates": [-0.5515588, 47.473988399999996, 0], "type": "Point"}, "properties": {"city_name": "Angers", "mentions": 1}, "type": "Feature"}, {"geometry": {"coordinates": [-4.4860088, 48.3905283, 0], "type": "Point"}, "properties": {"city_name": "Brest", "mentions": 11}, "type": "Feature"}, {"geometry": {"coordinates": [7.011429, 51.457087, 0], "type": "Point"}, "properties": {"city_name": "Essen", "mentions": 13}, "type": "Feature"}, {"geometry": {"coordinates": [16.9197520238885, 52.4006522, 0], "type": "Point"}, "properties": {"city_name": "Poznan", "mentions": 3}, "type": "Feature"}, {"geometry": {"coordinates": [9.452542, 42.7065505, 0], "type": "Point"}, "properties": {"city_name": "Bastia", "mentions": 1}, "type": "Feature"}, {"geometry": {"coordinates": [4.6575708, 46.4339138, 0], "type": "Point"}, "properties": {"city_name": "Cluny", "mentions": 14}, "type": "Feature"}, {"geometry": {"coordinates": [11.996148, 51.35644129999999, 0], "type": "Point"}, "properties": {"city_name": "Merseburg", "mentions": 6}, "type": "Feature"}, {"geometry": {"coordinates": [-1.1330788999999999, 52.636139799999995, 0], "type": "Point"}, "properties": {"city_name": "Leicester", "mentions": 14}, "type": "Feature"}, {"geometry": {"coordinates": [13.046480599999999, 47.798134600000004, 0], "type": "Point"}, "properties": {"city_name": "Salzburg", "mentions": 27}, "type": "Feature"}, {"geometry": {"coordinates": [9.0538156, 54.485363799999995, 0], "type": "Point"}, "properties": {"city_name": "Husum", "mentions": 9}, "type": "Feature"}, {"geometry": {"coordinates": [-2.9805392000000004, 53.4054719, 0], "type": "Point"}, "properties": {"city_name": "Liverpool", "mentions": 3}, "type": "Feature"}, {"geometry": {"coordinates": [0.22551679999999996, 49.1460831, 0], "type": "Point"}, "properties": {"city_name": "Lisieux", "mentions": 6}, "type": "Feature"}, {"geometry": {"coordinates": [55.947727, 54.726288000000004, 0], "type": "Point"}, "properties": {"city_name": "Ufa", "mentions": 1}, "type": "Feature"}, {"geometry": {"coordinates": [-5.9300992, 54.5969869, 0], "type": "Point"}, "properties": {"city_name": "Belfast", "mentions": 1}, "type": "Feature"}, {"geometry": {"coordinates": [2.7015872000000005, 48.4049375, 0], "type": "Point"}, "properties": {"city_name": "Fontainebleau", "mentions": 3}, "type": "Feature"}, {"geometry": {"coordinates": [-8.4280045, 41.5510583, 0], "type": "Point"}, "properties": {"city_name": "Braga", "mentions": 1}, "type": "Feature"}, {"geometry": {"coordinates": [131.4449817, 43.029595799999996, 0], "type": "Point"}, "properties": {"city_name": "Narva", "mentions": 2}, "type": "Feature"}, {"geometry": {"coordinates": [-1.6995136999999998, 38.510664899999995, 0], "type": "Point"}, "properties": {"city_name": "Hellin", "mentions": 2}, "type": "Feature"}, {"geometry": {"coordinates": [13.0904622, 54.3159851, 0], "type": "Point"}, "properties": {"city_name": "Stralsund", "mentions": 11}, "type": "Feature"}, {"geometry": {"coordinates": [0.1967379, 48.00734979999999, 0], "type": "Point"}, "properties": {"city_name": "Le Mans", "mentions": 1}, "type": "Feature"}, {"geometry": {"coordinates": [6.176355200000001, 49.119696399999995, 0], "type": "Point"}, "properties": {"city_name": "Metz", "mentions": 2}, "type": "Feature"}, {"geometry": {"coordinates": [8.025636, 44.691542, 0], "type": "Point"}, "properties": {"city_name": "Alba", "mentions": 7}, "type": "Feature"}, {"geometry": {"coordinates": [10.081052, 52.624056, 0], "type": "Point"}, "properties": {"city_name": "Celle", "mentions": 3}, "type": "Feature"}, {"geometry": {"coordinates": [-1.894053, 52.47753960000001, 0], "type": "Point"}, "properties": {"city_name": "Birmingham", "mentions": 1}, "type": "Feature"}, {"geometry": {"coordinates": [10.2204897, 45.539939200000006, 0], "type": "Point"}, "properties": {"city_name": "Brescia", "mentions": 1}, "type": "Feature"}, {"geometry": {"coordinates": [-0.7723499, 48.071037700000005, 0], "type": "Point"}, "properties": {"city_name": "Laval", "mentions": 6}, "type": "Feature"}, {"geometry": {"coordinates": [11.6399609, 52.1315889, 0], "type": "Point"}, "properties": {"city_name": "Magdeburg", "mentions": 12}, "type": "Feature"}, {"geometry": {"coordinates": [3.9519580000000003, 50.4549568, 0], "type": "Point"}, "properties": {"city_name": "Mons", "mentions": 3}, "type": "Feature"}, {"geometry": {"coordinates": [-1.3131692, 51.0612766, 0], "type": "Point"}, "properties": {"city_name": "Winchester", "mentions": 1}, "type": "Feature"}, {"geometry": {"coordinates": [0.6176324000000001, 44.2015624, 0], "type": "Point"}, "properties": {"city_name": "Agen", "mentions": 1}, "type": "Feature"}, {"geometry": {"coordinates": [12.3345898, 45.437190799999996, 0], "type": "Point"}, "properties": {"city_name": "Venezia", "mentions": 3}, "type": "Feature"}, {"geometry": {"coordinates": [7.5943951, 50.3533278, 0], "type": "Point"}, "properties": {"city_name": "Koblenz", "mentions": 1}, "type": "Feature"}, {"geometry": {"coordinates": [12.6136135, 56.0345277, 0], "type": "Point"}, "properties": {"city_name": "Helsingør", "mentions": 22}, "type": "Feature"}, {"geometry": {"coordinates": [13.381523800000002, 54.095791000000006, 0], "type": "Point"}, "properties": {"city_name": "Greifswald", "mentions": 7}, "type": "Feature"}, {"geometry": {"coordinates": [9.67086007564374, 59.59455005, 0], "type": "Point"}, "properties": {"city_name": "Kongsberg", "mentions": 3}, "type": "Feature"}, {"geometry": {"coordinates": [8.276251299999998, 50.0012314, 0], "type": "Point"}, "properties": {"city_name": "Mainz", "mentions": 20}, "type": "Feature"}, {"geometry": {"coordinates": [3.7250121, 51.0538286, 0], "type": "Point"}, "properties": {"city_name": "Gent", "mentions": 9}, "type": "Feature"}, {"geometry": {"coordinates": [12.5700724, 55.6867243, 0], "type": "Point"}, "properties": {"city_name": "København", "mentions": 479}, "type": "Feature"}, {"geometry": {"coordinates": [5.0414701, 47.321580600000004, 0], "type": "Point"}, "properties": {"city_name": "Dijon", "mentions": 1}, "type": "Feature"}, {"geometry": {"coordinates": [0.5850506999999999, 43.646355799999995, 0], "type": "Point"}, "properties": {"city_name": "Auch", "mentions": 7}, "type": "Feature"}, {"geometry": {"coordinates": [4.8320114, 45.75781370000001, 0], "type": "Point"}, "properties": {"city_name": "Lyon", "mentions": 2}, "type": "Feature"}, {"geometry": {"coordinates": [1.1510163999999998, 49.0268903, 0], "type": "Point"}, "properties": {"city_name": "Evreux", "mentions": 2}, "type": "Feature"}, {"geometry": {"coordinates": [4.0385864, 51.0683621, 0], "type": "Point"}, "properties": {"city_name": "Zele", "mentions": 1}, "type": "Feature"}, {"geometry": {"coordinates": [110.82620940000001, 55.2229642, 0], "type": "Point"}, "properties": {"city_name": "Tallin", "mentions": 2}, "type": "Feature"}, {"geometry": {"coordinates": [11.0554519, 51.892656099999996, 0], "type": "Point"}, "properties": {"city_name": "Halberstadt", "mentions": 4}, "type": "Feature"}, {"geometry": {"coordinates": [23.695692, 52.09943, 0], "type": "Point"}, "properties": {"city_name": "Brest", "mentions": 11}, "type": "Feature"}, {"geometry": {"coordinates": [-0.36856679999999997, 43.2957547, 0], "type": "Point"}, "properties": {"city_name": "Pau", "mentions": 61}, "type": "Feature"}, {"geometry": {"coordinates": [2.1266886, 48.8035403, 0], "type": "Point"}, "properties": {"city_name": "Versailles", "mentions": 30}, "type": "Feature"}, {"geometry": {"coordinates": [-1.510477, 52.4081812, 0], "type": "Point"}, "properties": {"city_name": "Coventry", "mentions": 1}, "type": "Feature"}, {"geometry": {"coordinates": [15.9711628, 47.281612599999995, 0], "type": "Point"}, "properties": {"city_name": "Bella", "mentions": 2}, "type": "Feature"}, {"geometry": {"coordinates": [18.297982, 57.637936100000005, 0], "type": "Point"}, "properties": {"city_name": "Visby", "mentions": 2}, "type": "Feature"}, {"geometry": {"coordinates": [-0.902493, 52.2385239, 0], "type": "Point"}, "properties": {"city_name": "Northampton", "mentions": 1}, "type": "Feature"}, {"geometry": {"coordinates": [-1.0756139999999998, 50.8036831, 0], "type": "Point"}, "properties": {"city_name": "Portsmouth", "mentions": 1}, "type": "Feature"}, {"geometry": {"coordinates": [4.569651599999999, 51.131069000000004, 0], "type": "Point"}, "properties": {"city_name": "Lier", "mentions": 2}, "type": "Feature"}, {"geometry": {"coordinates": [4.7512296784898895, 51.5644477, 0], "type": "Point"}, "properties": {"city_name": "Breda", "mentions": 1}, "type": "Feature"}, {"geometry": {"coordinates": [-1.7951176, 51.073661200000004, 0], "type": "Point"}, "properties": {"city_name": "Salisbury", "mentions": 23}, "type": "Feature"}, {"geometry": {"coordinates": [4.0636214, 48.9188653, 0], "type": "Point"}, "properties": {"city_name": "Villeneuve", "mentions": 4}, "type": "Feature"}, {"geometry": {"coordinates": [6.1326288, 50.048301, 0], "type": "Point"}, "properties": {"city_name": "Burg", "mentions": 12}, "type": "Feature"}, {"geometry": {"coordinates": [-0.1276474, 51.5073219, 0], "type": "Point"}, "properties": {"city_name": "London", "mentions": 199}, "type": "Feature"}, {"geometry": {"coordinates": [10.135555, 54.3227085, 0], "type": "Point"}, "properties": {"city_name": "Kiel", "mentions": 77}, "type": "Feature"}, {"geometry": {"coordinates": [12.829673399999999, 55.8698007, 0], "type": "Point"}, "properties": {"city_name": "Landskrona", "mentions": 3}, "type": "Feature"}, {"geometry": {"coordinates": [1.2644847, 45.83542429999999, 0], "type": "Point"}, "properties": {"city_name": "Limoges", "mentions": 1}, "type": "Feature"}, {"geometry": {"coordinates": [9.175071800000001, 47.659216, 0], "type": "Point"}, "properties": {"city_name": "Konstanz", "mentions": 4}, "type": "Feature"}, {"geometry": {"coordinates": [5.3867277, 49.1589278, 0], "type": "Point"}, "properties": {"city_name": "Verdun", "mentions": 5}, "type": "Feature"}, {"geometry": {"coordinates": [4.91242, 50.260816600000005, 0], "type": "Point"}, "properties": {"city_name": "Dinant", "mentions": 1}, "type": "Feature"}, {"geometry": {"coordinates": [10.000653999999999, 53.550341, 0], "type": "Point"}, "properties": {"city_name": "Hamburg", "mentions": 72}, "type": "Feature"}, {"geometry": {"coordinates": [4.0746257, 48.2971626, 0], "type": "Point"}, "properties": {"city_name": "Troyes", "mentions": 1}, "type": "Feature"}, {"geometry": {"coordinates": [-3.7035824999999996, 40.416704700000004, 0], "type": "Point"}, "properties": {"city_name": "Madrid", "mentions": 4}, "type": "Feature"}, {"geometry": {"coordinates": [14.214077900000001, 37.305023600000006, 0], "type": "Point"}, "properties": {"city_name": "Mazzarino", "mentions": 11}, "type": "Feature"}, {"geometry": {"coordinates": [9.77766972686892, 53.58646755, 0], "type": "Point"}, "properties": {"city_name": "Altona", "mentions": 12}, "type": "Feature"}, {"geometry": {"coordinates": [10.6085739, 55.063888399999996, 0], "type": "Point"}, "properties": {"city_name": "Svendborg", "mentions": 5}, "type": "Feature"}, {"geometry": {"coordinates": [12.646761, 51.8666527, 0], "type": "Point"}, "properties": {"city_name": "Wittenberg", "mentions": 3}, "type": "Feature"}, {"geometry": {"coordinates": [18.628233380486897, 54.36143025, 0], "type": "Point"}, "properties": {"city_name": "Gdansk", "mentions": 7}, "type": "Feature"}, {"geometry": {"coordinates": [12.0409384, 44.222601700000006, 0], "type": "Point"}, "properties": {"city_name": "Forli", "mentions": 3}, "type": "Feature"}, {"geometry": {"coordinates": [13.614104999999999, 41.715723, 0], "type": "Point"}, "properties": {"city_name": "Sora", "mentions": 3}, "type": "Feature"}, {"geometry": {"coordinates": [10.8876149, 49.8926723, 0], "type": "Point"}, "properties": {"city_name": "Bamberg", "mentions": 15}, "type": "Feature"}, {"geometry": {"coordinates": [1.9086066000000002, 47.9027336, 0], "type": "Point"}, "properties": {"city_name": "Orleans", "mentions": 2}, "type": "Feature"}, {"geometry": {"coordinates": [8.9338624, 44.40726, 0], "type": "Point"}, "properties": {"city_name": "Genova", "mentions": 6}, "type": "Feature"}, {"geometry": {"coordinates": [14.2487826, 40.835933600000004, 0], "type": "Point"}, "properties": {"city_name": "Napoli", "mentions": 2}, "type": "Feature"}, {"geometry": {"coordinates": [4.89797550561798, 52.3745403, 0], "type": "Point"}, "properties": {"city_name": "Amsterdam", "mentions": 17}, "type": "Feature"}, {"geometry": {"coordinates": [9.1800132, 48.778448499999996, 0], "type": "Point"}, "properties": {"city_name": "Stuttgart", "mentions": 6}, "type": "Feature"}, {"geometry": {"coordinates": [19.9580758, 40.7018636, 0], "type": "Point"}, "properties": {"city_name": "Berat", "mentions": 3}, "type": "Feature"}, {"geometry": {"coordinates": [31.275786199999995, 58.52098620000001, 0], "type": "Point"}, "properties": {"city_name": "Novgorod", "mentions": 4}, "type": "Feature"}, {"geometry": {"coordinates": [3.327613, 49.383762100000006, 0], "type": "Point"}, "properties": {"city_name": "Soissons", "mentions": 2}, "type": "Feature"}, {"geometry": {"coordinates": [4.3997081, 51.2211097, 0], "type": "Point"}, "properties": {"city_name": "Antwerpen", "mentions": 3}, "type": "Feature"}, {"geometry": {"coordinates": [6.083862, 50.776351, 0], "type": "Point"}, "properties": {"city_name": "Aachen", "mentions": 4}, "type": "Feature"}, {"geometry": {"coordinates": [-2.3596963, 51.3813864, 0], "type": "Point"}, "properties": {"city_name": "Bath", "mentions": 15}, "type": "Feature"}, {"geometry": {"coordinates": [6.146601400000001, 46.2017559, 0], "type": "Point"}, "properties": {"city_name": "Geneve", "mentions": 1}, "type": "Feature"}, {"geometry": {"coordinates": [20.3743665, 47.898988700000004, 0], "type": "Point"}, "properties": {"city_name": "Eger", "mentions": 20}, "type": "Feature"}, {"geometry": {"coordinates": [18.0710935, 59.3251172, 0], "type": "Point"}, "properties": {"city_name": "Stockholm", "mentions": 71}, "type": "Feature"}, {"geometry": {"coordinates": [11.0287364, 50.9777974, 0], "type": "Point"}, "properties": {"city_name": "Erfurt", "mentions": 27}, "type": "Feature"}, {"geometry": {"coordinates": [6.131367415330139, 51.785483899999996, 0], "type": "Point"}, "properties": {"city_name": "Kleve", "mentions": 2}, "type": "Feature"}, {"geometry": {"coordinates": [5.0528680999999995, 45.0458886, 0], "type": "Point"}, "properties": {"city_name": "Romans", "mentions": 2}, "type": "Feature"}, {"geometry": {"coordinates": [10.316699900000001, 50.9833, 0], "type": "Point"}, "properties": {"city_name": "Eisenach", "mentions": 1}, "type": "Feature"}, {"geometry": {"coordinates": [2.3514992, 48.856610100000005, 0], "type": "Point"}, "properties": {"city_name": "Paris", "mentions": 122}, "type": "Feature"}, {"geometry": {"coordinates": [22.679341, 50.009213, 0], "type": "Point"}, "properties": {"city_name": "Jaroslaw", "mentions": 1}, "type": "Feature"}, {"geometry": {"coordinates": [5.4263436049647105, 43.514925399999996, 0], "type": "Point"}, "properties": {"city_name": "Orange", "mentions": 1}, "type": "Feature"}, {"geometry": {"coordinates": [11.397137204221098, 47.26951525, 0], "type": "Point"}, "properties": {"city_name": "Innsbruck", "mentions": 1}, "type": "Feature"}, {"geometry": {"coordinates": [2.2956951, 49.8941708, 0], "type": "Point"}, "properties": {"city_name": "Amiens", "mentions": 1}, "type": "Feature"}, {"geometry": {"coordinates": [9.6645115, 54.3046701, 0], "type": "Point"}, "properties": {"city_name": "Rendsburg", "mentions": 1}, "type": "Feature"}, {"geometry": {"coordinates": [11.2555757, 43.769871200000004, 0], "type": "Point"}, "properties": {"city_name": "Firenze", "mentions": 2}, "type": "Feature"}, {"geometry": {"coordinates": [11.5903337, 53.9449473, 0], "type": "Point"}, "properties": {"city_name": "Neuburg", "mentions": 4}, "type": "Feature"}, {"geometry": {"coordinates": [8.433615, 49.3165553, 0], "type": "Point"}, "properties": {"city_name": "Speyer", "mentions": 2}, "type": "Feature"}, {"geometry": {"coordinates": [7.10066, 50.735851000000004, 0], "type": "Point"}, "properties": {"city_name": "Bonn", "mentions": 8}, "type": "Feature"}, {"geometry": {"coordinates": [37.5654146728006, 55.743119400000005, 0], "type": "Point"}, "properties": {"city_name": "Kiev", "mentions": 1}, "type": "Feature"}, {"geometry": {"coordinates": [13.0591397, 52.4009309, 0], "type": "Point"}, "properties": {"city_name": "Potsdam", "mentions": 1}, "type": "Feature"}], "type": "FeatureCollection"}