{"features": [{"geometry": {"coordinates": [9.737141000000001, 52.38497, 0], "type": "Point"}, "properties": {"city_name": "Hannover", "mentions": 3}, "type": "Feature"}, {"geometry": {"coordinates": [12.7, 56.05, 0], "type": "Point"}, "properties": {"city_name": "Helsingborg", "mentions": 3}, "type": "Feature"}, {"geometry": {"coordinates": [5.4166669999999995, 61.36666700000001, 0], "type": "Point"}, "properties": {"city_name": "Dale", "mentions": 1}, "type": "Feature"}, {"geometry": {"coordinates": [12.501944, 56.898056000000004, 0], "type": "Point"}, "properties": {"city_name": "Falkenberg", "mentions": 6}, "type": "Feature"}, {"geometry": {"coordinates": [12.6377, 51.867470000000004, 0], "type": "Point"}, "properties": {"city_name": "Wittenberg", "mentions": 2}, "type": "Feature"}, {"geometry": {"coordinates": [11.152503, 52.854354, 0], "type": "Point"}, "properties": {"city_name": "Salzwedel", "mentions": 2}, "type": "Feature"}, {"geometry": {"coordinates": [13.166667000000002, 55.36666700000001, 0], "type": "Point"}, "properties": {"city_name": "Trelleborg", "mentions": 2}, "type": "Feature"}, {"geometry": {"coordinates": [12.522092, 55.678467000000005, 0], "type": "Point"}, "properties": {"city_name": "Frederiksberg", "mentions": 1}, "type": "Feature"}, {"geometry": {"coordinates": [16.35, 63.1, 0], "type": "Point"}, "properties": {"city_name": "Hammarstrand", "mentions": 1}, "type": "Feature"}, {"geometry": {"coordinates": [9.941163000000001, 57.035498, 0], "type": "Point"}, "properties": {"city_name": "Aalborg", "mentions": 1}, "type": "Feature"}, {"geometry": {"coordinates": [9.683439, 50.554728999999995, 0], "type": "Point"}, "properties": {"city_name": "Fulda", "mentions": 1}, "type": "Feature"}, {"geometry": {"coordinates": [9.515814, 56.803808999999994, 0], "type": "Point"}, "properties": {"city_name": "Aars", "mentions": 34}, "type": "Feature"}, {"geometry": {"coordinates": [11.354142, 55.402719, 0], "type": "Point"}, "properties": {"city_name": "Slagelse", "mentions": 2}, "type": "Feature"}, {"geometry": {"coordinates": [12.551172, 52.410928000000006, 0], "type": "Point"}, "properties": {"city_name": "Brandenburg", "mentions": 3}, "type": "Feature"}, {"geometry": {"coordinates": [10.526726, 52.265939, 0], "type": "Point"}, "properties": {"city_name": "Braunschweig", "mentions": 1}, "type": "Feature"}, {"geometry": {"coordinates": [11.365363, 50.648259, 0], "type": "Point"}, "properties": {"city_name": "Saalfeld", "mentions": 1}, "type": "Feature"}, {"geometry": {"coordinates": [10.434446000000001, 51.917204, 0], "type": "Point"}, "properties": {"city_name": "Goslar", "mentions": 1}, "type": "Feature"}, {"geometry": {"coordinates": [9.517306, 53.92516, 0], "type": "Point"}, "properties": {"city_name": "Itzehoe", "mentions": 3}, "type": "Feature"}, {"geometry": {"coordinates": [11.452859, 53.893145, 0], "type": "Point"}, "properties": {"city_name": "Wismar", "mentions": 3}, "type": "Feature"}, {"geometry": {"coordinates": [13.816667, 55.416667000000004, 0], "type": "Point"}, "properties": {"city_name": "Ystad", "mentions": 1}, "type": "Feature"}, {"geometry": {"coordinates": [9.931704, 56.031296, 0], "type": "Point"}, "properties": {"city_name": "Skanderborg", "mentions": 4}, "type": "Feature"}, {"geometry": {"coordinates": [10.225530000000001, 56.153423, 0], "type": "Point"}, "properties": {"city_name": "Aarhus", "mentions": 13}, "type": "Feature"}, {"geometry": {"coordinates": [11.916667, 58.916667000000004, 0], "type": "Point"}, "properties": {"city_name": "Ed", "mentions": 6}, "type": "Feature"}, {"geometry": {"coordinates": [5.46663, 60.18346, 0], "type": "Point"}, "properties": {"city_name": "Os", "mentions": 6}, "type": "Feature"}, {"geometry": {"coordinates": [10.036389999999999, 56.46070400000001, 0], "type": "Point"}, "properties": {"city_name": "Randers", "mentions": 18}, "type": "Feature"}, {"geometry": {"coordinates": [12.855556, 56.671389000000005, 0], "type": "Point"}, "properties": {"city_name": "Halmstad", "mentions": 5}, "type": "Feature"}, {"geometry": {"coordinates": [11.747976, 48.402654, 0], "type": "Point"}, "properties": {"city_name": "Freising", "mentions": 1}, "type": "Feature"}, {"geometry": {"coordinates": [9.761693, 55.575781000000006, 0], "type": "Point"}, "properties": {"city_name": "Fredericia", "mentions": 1}, "type": "Feature"}, {"geometry": {"coordinates": [11.918332000000001, 50.31622, 0], "type": "Point"}, "properties": {"city_name": "Hof", "mentions": 7}, "type": "Feature"}, {"geometry": {"coordinates": [10.803394, 55.305845999999995, 0], "type": "Point"}, "properties": {"city_name": "Nyborg", "mentions": 3}, "type": "Feature"}, {"geometry": {"coordinates": [7.207775999999999, 53.367454, 0], "type": "Point"}, "properties": {"city_name": "Emden", "mentions": 6}, "type": "Feature"}, {"geometry": {"coordinates": [51.299807, 70.502115, 0], "type": "Point"}, "properties": {"city_name": "Sundet", "mentions": 8}, "type": "Feature"}, {"geometry": {"coordinates": [11.056224, 51.895617, 0], "type": "Point"}, "properties": {"city_name": "Halberstadt", "mentions": 1}, "type": "Feature"}, {"geometry": {"coordinates": [10.790845, 53.694697999999995, 0], "type": "Point"}, "properties": {"city_name": "Ratzeburg", "mentions": 2}, "type": "Feature"}, {"geometry": {"coordinates": [8.050302, 50.383596999999995, 0], "type": "Point"}, "properties": {"city_name": "Limburg", "mentions": 1}, "type": "Feature"}, {"geometry": {"coordinates": [9.476291999999999, 53.593368999999996, 0], "type": "Point"}, "properties": {"city_name": "Stade", "mentions": 2}, "type": "Feature"}, {"geometry": {"coordinates": [14.133332999999999, 56.033333, 0], "type": "Point"}, "properties": {"city_name": "Kristianstad", "mentions": 3}, "type": "Feature"}, {"geometry": {"coordinates": [10.135525999999999, 54.312144999999994, 0], "type": "Point"}, "properties": {"city_name": "Kiel", "mentions": 20}, "type": "Feature"}, {"geometry": {"coordinates": [10.418056, 59.285833, 0], "type": "Point"}, "properties": {"city_name": "Tønsberg", "mentions": 1}, "type": "Feature"}, {"geometry": {"coordinates": [79.85571490000007, 11.0250073, 0], "type": "Point"}, "properties": {"city_name": "Dansborg", "mentions": 3}, "type": "Feature"}, {"geometry": {"coordinates": [88.33850529999997, 22.748331, 0], "type": "Point"}, "properties": {"city_name": "Serampore", "mentions": 4}, "type": "Feature"}, {"geometry": {"coordinates": [9.417999, 55.03621700000001, 0], "type": "Point"}, "properties": {"city_name": "Aabenraa", "mentions": 4}, "type": "Feature"}, {"geometry": {"coordinates": [12.249199, 55.596631, 0], "type": "Point"}, "properties": {"city_name": "Greve", "mentions": 10}, "type": "Feature"}, {"geometry": {"coordinates": [11.784213000000001, 55.224897999999996, 0], "type": "Point"}, "properties": {"city_name": "Næstved", "mentions": 12}, "type": "Feature"}, {"geometry": {"coordinates": [8.359164, 49.632784, 0], "type": "Point"}, "properties": {"city_name": "Worms", "mentions": 3}, "type": "Feature"}, {"geometry": {"coordinates": [12.586267, 56.029377000000004, 0], "type": "Point"}, "properties": {"city_name": "Helsingør", "mentions": 3}, "type": "Feature"}, {"geometry": {"coordinates": [8.108861, 51.571657, 0], "type": "Point"}, "properties": {"city_name": "Soest", "mentions": 1}, "type": "Feature"}, {"geometry": {"coordinates": [11.809436999999999, 55.441120999999995, 0], "type": "Point"}, "properties": {"city_name": "Ringsted", "mentions": 27}, "type": "Feature"}, {"geometry": {"coordinates": [12.113453, 54.086813, 0], "type": "Point"}, "properties": {"city_name": "Rostock", "mentions": 8}, "type": "Feature"}, {"geometry": {"coordinates": [12.066667, 57.483332999999995, 0], "type": "Point"}, "properties": {"city_name": "Kungsbacka", "mentions": 1}, "type": "Feature"}, {"geometry": {"coordinates": [5.324722, 60.391110999999995, 0], "type": "Point"}, "properties": {"city_name": "Bergen", "mentions": 7}, "type": "Feature"}, {"geometry": {"coordinates": [14.639710000000001, 51.735443, 0], "type": "Point"}, "properties": {"city_name": "Forst", "mentions": 1}, "type": "Feature"}, {"geometry": {"coordinates": [10.01534, 53.575323, 0], "type": "Point"}, "properties": {"city_name": "Hamburg", "mentions": 14}, "type": "Feature"}, {"geometry": {"coordinates": [9.489315, 55.252433999999994, 0], "type": "Point"}, "properties": {"city_name": "Haderslev", "mentions": 13}, "type": "Feature"}, {"geometry": {"coordinates": [7.012282000000001, 51.45657, 0], "type": "Point"}, "properties": {"city_name": "Essen", "mentions": 1}, "type": "Feature"}, {"geometry": {"coordinates": [12.591811, 55.753674, 0], "type": "Point"}, "properties": {"city_name": "Charlottenlund", "mentions": 1}, "type": "Feature"}, {"geometry": {"coordinates": [0.618047899999965, 5.7796907, 0], "type": "Point"}, "properties": {"city_name": "Fort Kongensten", "mentions": 1}, "type": "Feature"}, {"geometry": {"coordinates": [9.565161999999999, 56.170145999999995, 0], "type": "Point"}, "properties": {"city_name": "Silkeborg", "mentions": 2}, "type": "Feature"}, {"geometry": {"coordinates": [10.75, 59.916667000000004, 0], "type": "Point"}, "properties": {"city_name": "Oslo", "mentions": 11}, "type": "Feature"}, {"geometry": {"coordinates": [12.501106, 55.88098000000001, 0], "type": "Point"}, "properties": {"city_name": "Hørsholm", "mentions": 2}, "type": "Feature"}, {"geometry": {"coordinates": [8.869335000000001, 54.943118000000005, 0], "type": "Point"}, "properties": {"city_name": "Tønder", "mentions": 15}, "type": "Feature"}, {"geometry": {"coordinates": [51.305205, 69.997781, 0], "type": "Point"}, "properties": {"city_name": "Øen", "mentions": 8}, "type": "Feature"}, {"geometry": {"coordinates": [18.298582, 57.639617, 0], "type": "Point"}, "properties": {"city_name": "Visby", "mentions": 3}, "type": "Feature"}, {"geometry": {"coordinates": [9.959859, 57.265112, 0], "type": "Point"}, "properties": {"city_name": "Brønderslev", "mentions": 4}, "type": "Feature"}, {"geometry": {"coordinates": [9.663126, 54.306633999999995, 0], "type": "Point"}, "properties": {"city_name": "Rendsburg", "mentions": 1}, "type": "Feature"}, {"geometry": {"coordinates": [8.48073, 55.62157, 0], "type": "Point"}, "properties": {"city_name": "Varde", "mentions": 1}, "type": "Feature"}, {"geometry": {"coordinates": [88.33850529999997, 22.748331, 0], "type": "Point"}, "properties": {"city_name": "Frederiksnagore", "mentions": 3}, "type": "Feature"}, {"geometry": {"coordinates": [9.137948, 55.48117, 0], "type": "Point"}, "properties": {"city_name": "Vejen", "mentions": 53}, "type": "Feature"}, {"geometry": {"coordinates": [11.502436999999999, 54.775197999999996, 0], "type": "Point"}, "properties": {"city_name": "Maribo", "mentions": 3}, "type": "Feature"}, {"geometry": {"coordinates": [13.183333, 55.7, 0], "type": "Point"}, "properties": {"city_name": "Lund", "mentions": 31}, "type": "Feature"}, {"geometry": {"coordinates": [9.873531, 55.865675, 0], "type": "Point"}, "properties": {"city_name": "Horsens", "mentions": 4}, "type": "Feature"}, {"geometry": {"coordinates": [9.542763, 55.708391000000006, 0], "type": "Point"}, "properties": {"city_name": "Vejle", "mentions": 1}, "type": "Feature"}, {"geometry": {"coordinates": [11.100425999999999, 55.681984, 0], "type": "Point"}, "properties": {"city_name": "Kalundborg", "mentions": 1}, "type": "Feature"}, {"geometry": {"coordinates": [11.560856, 55.438715, 0], "type": "Point"}, "properties": {"city_name": "Sorø", "mentions": 15}, "type": "Feature"}, {"geometry": {"coordinates": [5.816667, 60.583332999999996, 0], "type": "Point"}, "properties": {"city_name": "Dale", "mentions": 1}, "type": "Feature"}, {"geometry": {"coordinates": [64.89409460000002, 18.3380965, 0], "type": "Point"}, "properties": {"city_name": "St. Thomas", "mentions": 3}, "type": "Feature"}, {"geometry": {"coordinates": [13.745794, 51.048562, 0], "type": "Point"}, "properties": {"city_name": "Dresden", "mentions": 3}, "type": "Feature"}, {"geometry": {"coordinates": [11.933333, 58.36666700000001, 0], "type": "Point"}, "properties": {"city_name": "Uddevalla", "mentions": 4}, "type": "Feature"}, {"geometry": {"coordinates": [21.7, 65.833333, 0], "type": "Point"}, "properties": {"city_name": "Boden", "mentions": 2}, "type": "Feature"}, {"geometry": {"coordinates": [18.05, 59.333332999999996, 0], "type": "Point"}, "properties": {"city_name": "Stockholm", "mentions": 30}, "type": "Feature"}, {"geometry": {"coordinates": [10.591346000000001, 55.05873199999999, 0], "type": "Point"}, "properties": {"city_name": "Svendborg", "mentions": 1}, "type": "Feature"}, {"geometry": {"coordinates": [9.404291, 56.452819999999996, 0], "type": "Point"}, "properties": {"city_name": "Viborg", "mentions": 52}, "type": "Feature"}, {"geometry": {"coordinates": [31.1, 70.366667, 0], "type": "Point"}, "properties": {"city_name": "Vardø", "mentions": 6}, "type": "Feature"}, {"geometry": {"coordinates": [9.439611, 54.78431, 0], "type": "Point"}, "properties": {"city_name": "Flensburg", "mentions": 2}, "type": "Feature"}, {"geometry": {"coordinates": [9.0, 58.86666700000001, 0], "type": "Point"}, "properties": {"city_name": "Gjerstad", "mentions": 1}, "type": "Feature"}, {"geometry": {"coordinates": [10.547177, 57.443803, 0], "type": "Point"}, "properties": {"city_name": "Frederikshavn", "mentions": 1}, "type": "Feature"}, {"geometry": {"coordinates": [79.85068150000006, 11.0290373, 0], "type": "Point"}, "properties": {"city_name": "Trankebar", "mentions": 22}, "type": "Feature"}, {"geometry": {"coordinates": [10.593098, 49.304808, 0], "type": "Point"}, "properties": {"city_name": "Ansbach", "mentions": 1}, "type": "Feature"}, {"geometry": {"coordinates": [10.895649, 56.41285, 0], "type": "Point"}, "properties": {"city_name": "Grenaa", "mentions": 2}, "type": "Feature"}, {"geometry": {"coordinates": [8.684167, 50.115520000000004, 0], "type": "Point"}, "properties": {"city_name": "Frankfurt", "mentions": 3}, "type": "Feature"}, {"geometry": {"coordinates": [12.583333, 55.666667000000004, 0], "type": "Point"}, "properties": {"city_name": "København", "mentions": 71}, "type": "Feature"}, {"geometry": {"coordinates": [9.830964999999999, 56.890868999999995, 0], "type": "Point"}, "properties": {"city_name": "Støvring", "mentions": 1}, "type": "Feature"}, {"geometry": {"coordinates": [13.387857, 54.093106999999996, 0], "type": "Point"}, "properties": {"city_name": "Greifswald", "mentions": 2}, "type": "Feature"}, {"geometry": {"coordinates": [7.471678999999999, 51.360811, 0], "type": "Point"}, "properties": {"city_name": "Hagen", "mentions": 5}, "type": "Feature"}, {"geometry": {"coordinates": [9.988917, 57.466322999999996, 0], "type": "Point"}, "properties": {"city_name": "Hjørring", "mentions": 1}, "type": "Feature"}, {"geometry": {"coordinates": [7.465997, 51.514942, 0], "type": "Point"}, "properties": {"city_name": "Dortmund", "mentions": 1}, "type": "Feature"}, {"geometry": {"coordinates": [10.394935, 55.393475, 0], "type": "Point"}, "properties": {"city_name": "Odense", "mentions": 33}, "type": "Feature"}, {"geometry": {"coordinates": [11.032831, 50.978695, 0], "type": "Point"}, "properties": {"city_name": "Erfurt", "mentions": 1}, "type": "Feature"}, {"geometry": {"coordinates": [11.32903, 50.980301000000004, 0], "type": "Point"}, "properties": {"city_name": "Weimar", "mentions": 2}, "type": "Feature"}, {"geometry": {"coordinates": [8.826754, 53.073789, 0], "type": "Point"}, "properties": {"city_name": "Bremen", "mentions": 58}, "type": "Feature"}, {"geometry": {"coordinates": [9.234908, 52.923425, 0], "type": "Point"}, "properties": {"city_name": "Verden", "mentions": 20}, "type": "Feature"}, {"geometry": {"coordinates": [12.386503999999999, 51.344190000000005, 0], "type": "Point"}, "properties": {"city_name": "Leipzig", "mentions": 4}, "type": "Feature"}, {"geometry": {"coordinates": [9.468121, 55.492943999999994, 0], "type": "Point"}, "properties": {"city_name": "Kolding", "mentions": 9}, "type": "Feature"}, {"geometry": {"coordinates": [12.266099, 57.108585999999995, 0], "type": "Point"}, "properties": {"city_name": "Varberg", "mentions": 9}, "type": "Feature"}, {"geometry": {"coordinates": [13.933333, 56.833332999999996, 0], "type": "Point"}, "properties": {"city_name": "Ljungby", "mentions": 2}, "type": "Feature"}, {"geometry": {"coordinates": [10.898514, 48.371538, 0], "type": "Point"}, "properties": {"city_name": "Augsburg", "mentions": 1}, "type": "Feature"}, {"geometry": {"coordinates": [9.792843, 54.910633999999995, 0], "type": "Point"}, "properties": {"city_name": "Sønderborg", "mentions": 5}, "type": "Feature"}, {"geometry": {"coordinates": [11.2, 62.5, 0], "type": "Point"}, "properties": {"city_name": "Os", "mentions": 6}, "type": "Feature"}, {"geometry": {"coordinates": [6.283333, 58.35, 0], "type": "Point"}, "properties": {"city_name": "Hauge", "mentions": 2}, "type": "Feature"}, {"geometry": {"coordinates": [7.84973, 47.996860999999996, 0], "type": "Point"}, "properties": {"city_name": "Freiburg", "mentions": 1}, "type": "Feature"}, {"geometry": {"coordinates": [12.08054, 55.640094, 0], "type": "Point"}, "properties": {"city_name": "Roskilde", "mentions": 50}, "type": "Feature"}, {"geometry": {"coordinates": [10.470646, 55.245059, 0], "type": "Point"}, "properties": {"city_name": "Ringe", "mentions": 1}, "type": "Feature"}, {"geometry": {"coordinates": [13.088588, 54.315822999999995, 0], "type": "Point"}, "properties": {"city_name": "Stralsund", "mentions": 4}, "type": "Feature"}, {"geometry": {"coordinates": [8.770694, 50.809044, 0], "type": "Point"}, "properties": {"city_name": "Marburg", "mentions": 1}, "type": "Feature"}, {"geometry": {"coordinates": [9.558598, 54.521561, 0], "type": "Point"}, "properties": {"city_name": "Schleswig", "mentions": 4}, "type": "Feature"}, {"geometry": {"coordinates": [8.214674, 53.141178000000004, 0], "type": "Point"}, "properties": {"city_name": "Oldenburg", "mentions": 3}, "type": "Feature"}, {"geometry": {"coordinates": [21.895, 64.135, 0], "type": "Point"}, "properties": {"city_name": "Reykjavik", "mentions": 2}, "type": "Feature"}, {"geometry": {"coordinates": [11.903917999999999, 55.01044, 0], "type": "Point"}, "properties": {"city_name": "Vordingborg", "mentions": 8}, "type": "Feature"}, {"geometry": {"coordinates": [8.431111, 49.320833, 0], "type": "Point"}, "properties": {"city_name": "Speyer", "mentions": 1}, "type": "Feature"}, {"geometry": {"coordinates": [13.4, 52.516667000000005, 0], "type": "Point"}, "properties": {"city_name": "Berlin", "mentions": 12}, "type": "Feature"}, {"geometry": {"coordinates": [9.059913, 54.482518000000006, 0], "type": "Point"}, "properties": {"city_name": "Husum", "mentions": 5}, "type": "Feature"}, {"geometry": {"coordinates": [11.578935000000001, 49.947823, 0], "type": "Point"}, "properties": {"city_name": "Bayreuth", "mentions": 1}, "type": "Feature"}, {"geometry": {"coordinates": [12.15, 65.3, 0], "type": "Point"}, "properties": {"city_name": "Vik", "mentions": 1}, "type": "Feature"}, {"geometry": {"coordinates": [0.18696439999996528, 5.6037168, 0], "type": "Point"}, "properties": {"city_name": "Fort Christiansborg", "mentions": 4}, "type": "Feature"}, {"geometry": {"coordinates": [16.9945, 68.52619, 0], "type": "Point"}, "properties": {"city_name": "Bogen", "mentions": 90}, "type": "Feature"}, {"geometry": {"coordinates": [12.116667, 67.516667, 0], "type": "Point"}, "properties": {"city_name": "Røst", "mentions": 1}, "type": "Feature"}, {"geometry": {"coordinates": [9.180819, 48.782343, 0], "type": "Point"}, "properties": {"city_name": "Stuttgart", "mentions": 1}, "type": "Feature"}, {"geometry": {"coordinates": [7.533333, 59.2, 0], "type": "Point"}, "properties": {"city_name": "Valle", "mentions": 1}, "type": "Feature"}], "type": "FeatureCollection"}