{"features": [{"geometry": {"coordinates": [6.9239103, 43.6589011, 0], "type": "Point"}, "properties": {"city_name": "Grasse", "mentions": 1}, "type": "Feature"}, {"geometry": {"coordinates": [10.204374900000001, 59.743674899999995, 0], "type": "Point"}, "properties": {"city_name": "Drammen", "mentions": 25}, "type": "Feature"}, {"geometry": {"coordinates": [15.2196575, 37.236936299999996, 0], "type": "Point"}, "properties": {"city_name": "Augusta", "mentions": 2}, "type": "Feature"}, {"geometry": {"coordinates": [10.8876149, 49.8926723, 0], "type": "Point"}, "properties": {"city_name": "Bamberg", "mentions": 2}, "type": "Feature"}, {"geometry": {"coordinates": [8.94694911492874, 58.42673005, 0], "type": "Point"}, "properties": {"city_name": "Arendal", "mentions": 1}, "type": "Feature"}, {"geometry": {"coordinates": [-1.5541361999999999, 47.2186371, 0], "type": "Point"}, "properties": {"city_name": "Nantes", "mentions": 5}, "type": "Feature"}, {"geometry": {"coordinates": [-2.97019, 56.4605938, 0], "type": "Point"}, "properties": {"city_name": "Dundee", "mentions": 2}, "type": "Feature"}, {"geometry": {"coordinates": [-1.4790341, 43.090916, 0], "type": "Point"}, "properties": {"city_name": "Alba", "mentions": 6}, "type": "Feature"}, {"geometry": {"coordinates": [3.2356613, 50.1759602, 0], "type": "Point"}, "properties": {"city_name": "Cambrai", "mentions": 1}, "type": "Feature"}, {"geometry": {"coordinates": [10.992412199999999, 45.4384958, 0], "type": "Point"}, "properties": {"city_name": "Verona", "mentions": 6}, "type": "Feature"}, {"geometry": {"coordinates": [5.3258117, 60.3943034, 0], "type": "Point"}, "properties": {"city_name": "Bergen", "mentions": 150}, "type": "Feature"}, {"geometry": {"coordinates": [-5.5682413, 42.5989995, 0], "type": "Point"}, "properties": {"city_name": "Leon", "mentions": 2}, "type": "Feature"}, {"geometry": {"coordinates": [0.283896428437724, 52.40187065, 0], "type": "Point"}, "properties": {"city_name": "Ely", "mentions": 1}, "type": "Feature"}, {"geometry": {"coordinates": [7.463146803781759, 53.2473626, 0], "type": "Point"}, "properties": {"city_name": "Leer", "mentions": 2}, "type": "Feature"}, {"geometry": {"coordinates": [10.3852104, 55.399722499999996, 0], "type": "Point"}, "properties": {"city_name": "Odense", "mentions": 126}, "type": "Feature"}, {"geometry": {"coordinates": [8.5074406, 50.5525346, 0], "type": "Point"}, "properties": {"city_name": "Wetzlar", "mentions": 1}, "type": "Feature"}, {"geometry": {"coordinates": [-0.3394758, 53.74357220000001, 0], "type": "Point"}, "properties": {"city_name": "Hull", "mentions": 8}, "type": "Feature"}, {"geometry": {"coordinates": [2.7772210999999998, 50.291047999999996, 0], "type": "Point"}, "properties": {"city_name": "Arras", "mentions": 1}, "type": "Feature"}, {"geometry": {"coordinates": [-0.5800364, 44.841225, 0], "type": "Point"}, "properties": {"city_name": "Bordeaux", "mentions": 5}, "type": "Feature"}, {"geometry": {"coordinates": [-2.4288874, 53.577693999999994, 0], "type": "Point"}, "properties": {"city_name": "Bolton", "mentions": 2}, "type": "Feature"}, {"geometry": {"coordinates": [9.9193939, 57.0482206, 0], "type": "Point"}, "properties": {"city_name": "Aalborg", "mentions": 140}, "type": "Feature"}, {"geometry": {"coordinates": [4.21335052785252, 51.1421436, 0], "type": "Point"}, "properties": {"city_name": "Temse", "mentions": 1}, "type": "Feature"}, {"geometry": {"coordinates": [12.5684371, 44.0593886, 0], "type": "Point"}, "properties": {"city_name": "Rimini", "mentions": 2}, "type": "Feature"}, {"geometry": {"coordinates": [1.0802533, 51.2800275, 0], "type": "Point"}, "properties": {"city_name": "Canterbury", "mentions": 3}, "type": "Feature"}, {"geometry": {"coordinates": [16.460756, 43.514802, 0], "type": "Point"}, "properties": {"city_name": "Split", "mentions": 3}, "type": "Feature"}, {"geometry": {"coordinates": [11.7141233, 44.3535145, 0], "type": "Point"}, "properties": {"city_name": "Imola", "mentions": 1}, "type": "Feature"}, {"geometry": {"coordinates": [10.6945265, 50.9462725, 0], "type": "Point"}, "properties": {"city_name": "Gotha", "mentions": 3}, "type": "Feature"}, {"geometry": {"coordinates": [13.0146632, 43.842417299999994, 0], "type": "Point"}, "properties": {"city_name": "Fano", "mentions": 2}, "type": "Feature"}, {"geometry": {"coordinates": [12.798884, 41.960922, 0], "type": "Point"}, "properties": {"city_name": "Tivoli", "mentions": 1}, "type": "Feature"}, {"geometry": {"coordinates": [12.2017617, 44.4161414, 0], "type": "Point"}, "properties": {"city_name": "Ravenna", "mentions": 2}, "type": "Feature"}, {"geometry": {"coordinates": [2.1774322, 41.3828939, 0], "type": "Point"}, "properties": {"city_name": "Barcelona", "mentions": 1}, "type": "Feature"}, {"geometry": {"coordinates": [12.4853384, 41.894802, 0], "type": "Point"}, "properties": {"city_name": "Roma", "mentions": 27}, "type": "Feature"}, {"geometry": {"coordinates": [9.3071685, 48.7427584, 0], "type": "Point"}, "properties": {"city_name": "Esslingen", "mentions": 1}, "type": "Feature"}, {"geometry": {"coordinates": [3.4772986000000006, 43.3134386, 0], "type": "Point"}, "properties": {"city_name": "Agde", "mentions": 1}, "type": "Feature"}, {"geometry": {"coordinates": [3.226772, 51.208552600000004, 0], "type": "Point"}, "properties": {"city_name": "Brugge", "mentions": 4}, "type": "Feature"}, {"geometry": {"coordinates": [16.056884099999998, 39.3304782, 0], "type": "Point"}, "properties": {"city_name": "Casale", "mentions": 1}, "type": "Feature"}, {"geometry": {"coordinates": [2.4838829, 46.300075299999996, 0], "type": "Point"}, "properties": {"city_name": "Aire", "mentions": 1}, "type": "Feature"}, {"geometry": {"coordinates": [-4.2435817, 55.85665600000001, 0], "type": "Point"}, "properties": {"city_name": "Glasgow", "mentions": 14}, "type": "Feature"}, {"geometry": {"coordinates": [11.883205499999999, 44.2855555, 0], "type": "Point"}, "properties": {"city_name": "Faenza", "mentions": 1}, "type": "Feature"}, {"geometry": {"coordinates": [7.2683912, 43.700935799999996, 0], "type": "Point"}, "properties": {"city_name": "Nice", "mentions": 1}, "type": "Feature"}, {"geometry": {"coordinates": [1.7631125, 50.46389179999999, 0], "type": "Point"}, "properties": {"city_name": "Montreuil", "mentions": 2}, "type": "Feature"}, {"geometry": {"coordinates": [11.331653300000001, 43.3185536, 0], "type": "Point"}, "properties": {"city_name": "Siena", "mentions": 2}, "type": "Feature"}, {"geometry": {"coordinates": [-4.370238099999999, 37.32526420000001, 0], "type": "Point"}, "properties": {"city_name": "Rute", "mentions": 1}, "type": "Feature"}, {"geometry": {"coordinates": [12.3747329, 51.3406321, 0], "type": "Point"}, "properties": {"city_name": "Leipzig", "mentions": 16}, "type": "Feature"}, {"geometry": {"coordinates": [-6.3599595, 36.6228636, 0], "type": "Point"}, "properties": {"city_name": "Rota", "mentions": 2}, "type": "Feature"}, {"geometry": {"coordinates": [0.3745929, 43.9564563, 0], "type": "Point"}, "properties": {"city_name": "Condom", "mentions": 2}, "type": "Feature"}, {"geometry": {"coordinates": [9.738553199999998, 52.374477899999995, 0], "type": "Point"}, "properties": {"city_name": "Hannover", "mentions": 42}, "type": "Feature"}, {"geometry": {"coordinates": [0.46540700966397097, 46.61211655, 0], "type": "Point"}, "properties": {"city_name": "Vienne", "mentions": 33}, "type": "Feature"}, {"geometry": {"coordinates": [11.3290855, 50.980281299999994, 0], "type": "Point"}, "properties": {"city_name": "Weimar", "mentions": 2}, "type": "Feature"}, {"geometry": {"coordinates": [7.5878261, 47.55810770000001, 0], "type": "Point"}, "properties": {"city_name": "Basel", "mentions": 15}, "type": "Feature"}, {"geometry": {"coordinates": [8.9520281, 46.0050102, 0], "type": "Point"}, "properties": {"city_name": "Lugano", "mentions": 1}, "type": "Feature"}, {"geometry": {"coordinates": [2.3826829, 45.6160984, 0], "type": "Point"}, "properties": {"city_name": "Aix", "mentions": 4}, "type": "Feature"}, {"geometry": {"coordinates": [41.713809999999995, 54.025643, 0], "type": "Point"}, "properties": {"city_name": "Sack", "mentions": 20}, "type": "Feature"}, {"geometry": {"coordinates": [0.2338889, 49.4197222, 0], "type": "Point"}, "properties": {"city_name": "Honfleur", "mentions": 2}, "type": "Feature"}, {"geometry": {"coordinates": [9.5653284, 54.51851, 0], "type": "Point"}, "properties": {"city_name": "Schleswig", "mentions": 112}, "type": "Feature"}, {"geometry": {"coordinates": [2.1478990000000002, 43.9277552, 0], "type": "Point"}, "properties": {"city_name": "Albi", "mentions": 3}, "type": "Feature"}, {"geometry": {"coordinates": [-1.1492773, 52.9534161, 0], "type": "Point"}, "properties": {"city_name": "Nottingham", "mentions": 1}, "type": "Feature"}, {"geometry": {"coordinates": [6.146601400000001, 46.2017559, 0], "type": "Point"}, "properties": {"city_name": "Geneve", "mentions": 3}, "type": "Feature"}, {"geometry": {"coordinates": [5.3699525, 43.2961743, 0], "type": "Point"}, "properties": {"city_name": "Marseille", "mentions": 4}, "type": "Feature"}, {"geometry": {"coordinates": [12.9131228, 43.9098114, 0], "type": "Point"}, "properties": {"city_name": "Pesaro", "mentions": 1}, "type": "Feature"}, {"geometry": {"coordinates": [13.2461296, 52.84554920000001, 0], "type": "Point"}, "properties": {"city_name": "Brandenburg", "mentions": 5}, "type": "Feature"}, {"geometry": {"coordinates": [3.0706414, 50.630508899999995, 0], "type": "Point"}, "properties": {"city_name": "Lille", "mentions": 5}, "type": "Feature"}, {"geometry": {"coordinates": [10.037147599999999, 56.461754500000005, 0], "type": "Point"}, "properties": {"city_name": "Randers", "mentions": 94}, "type": "Feature"}, {"geometry": {"coordinates": [16.366238199999998, 56.6628826, 0], "type": "Point"}, "properties": {"city_name": "Kalmar", "mentions": 7}, "type": "Feature"}, {"geometry": {"coordinates": [-1.95377383524348, 50.74018055, 0], "type": "Point"}, "properties": {"city_name": "Poole", "mentions": 1}, "type": "Feature"}, {"geometry": {"coordinates": [5.4925463, 47.0921047, 0], "type": "Point"}, "properties": {"city_name": "Dole", "mentions": 1}, "type": "Feature"}, {"geometry": {"coordinates": [-4.1497738, 37.1664851, 0], "type": "Point"}, "properties": {"city_name": "Loja", "mentions": 2}, "type": "Feature"}, {"geometry": {"coordinates": [-3.1902352, 55.9496416, 0], "type": "Point"}, "properties": {"city_name": "Edinburgh", "mentions": 4}, "type": "Feature"}, {"geometry": {"coordinates": [17.4705293, 47.326108700000006, 0], "type": "Point"}, "properties": {"city_name": "Papa", "mentions": 6}, "type": "Feature"}, {"geometry": {"coordinates": [11.4148038, 53.628829700000004, 0], "type": "Point"}, "properties": {"city_name": "Schwerin", "mentions": 7}, "type": "Feature"}, {"geometry": {"coordinates": [4.351697, 50.8465573, 0], "type": "Point"}, "properties": {"city_name": "Bruxelles", "mentions": 1}, "type": "Feature"}, {"geometry": {"coordinates": [11.546591099999999, 51.5283282, 0], "type": "Point"}, "properties": {"city_name": "Eisleben", "mentions": 1}, "type": "Feature"}, {"geometry": {"coordinates": [9.07237085, 45.81386235, 0], "type": "Point"}, "properties": {"city_name": "Sinigaglia", "mentions": 1}, "type": "Feature"}, {"geometry": {"coordinates": [4.8920810999999995, 44.9332277, 0], "type": "Point"}, "properties": {"city_name": "Valence", "mentions": 4}, "type": "Feature"}, {"geometry": {"coordinates": [14.0244047, 48.15669570000001, 0], "type": "Point"}, "properties": {"city_name": "Wels", "mentions": 12}, "type": "Feature"}, {"geometry": {"coordinates": [-2.0928095, 57.1482429, 0], "type": "Point"}, "properties": {"city_name": "Aberdeen", "mentions": 1}, "type": "Feature"}, {"geometry": {"coordinates": [4.8059012, 43.9492493, 0], "type": "Point"}, "properties": {"city_name": "Avignon", "mentions": 3}, "type": "Feature"}, {"geometry": {"coordinates": [-1.0815361000000001, 53.959055500000005, 0], "type": "Point"}, "properties": {"city_name": "York", "mentions": 7}, "type": "Feature"}, {"geometry": {"coordinates": [13.470493900000001, 51.163087100000006, 0], "type": "Point"}, "properties": {"city_name": "Meissen", "mentions": 1}, "type": "Feature"}, {"geometry": {"coordinates": [14.209717600000001, 41.1079984, 0], "type": "Point"}, "properties": {"city_name": "Capua", "mentions": 1}, "type": "Feature"}, {"geometry": {"coordinates": [12.7363357, 42.735512400000005, 0], "type": "Point"}, "properties": {"city_name": "Spoleto", "mentions": 1}, "type": "Feature"}, {"geometry": {"coordinates": [9.9193939, 57.0482206, 0], "type": "Point"}, "properties": {"city_name": "Ålborg", "mentions": 2}, "type": "Feature"}, {"geometry": {"coordinates": [-4.1425658, 50.3712659, 0], "type": "Point"}, "properties": {"city_name": "Plymouth", "mentions": 4}, "type": "Feature"}, {"geometry": {"coordinates": [12.1516551, 48.536217, 0], "type": "Point"}, "properties": {"city_name": "Landshut", "mentions": 1}, "type": "Feature"}, {"geometry": {"coordinates": [8.288627799999999, 51.4387667, 0], "type": "Point"}, "properties": {"city_name": "Halle", "mentions": 3}, "type": "Feature"}, {"geometry": {"coordinates": [5.019766000000001, 46.812785299999994, 0], "type": "Point"}, "properties": {"city_name": "Cosne", "mentions": 2}, "type": "Feature"}, {"geometry": {"coordinates": [13.163188, 50.6507279, 0], "type": "Point"}, "properties": {"city_name": "Marienberg", "mentions": 1}, "type": "Feature"}, {"geometry": {"coordinates": [11.464793199999999, 53.89098320000001, 0], "type": "Point"}, "properties": {"city_name": "Wismar", "mentions": 7}, "type": "Feature"}, {"geometry": {"coordinates": [9.669872699999999, 45.69449470000001, 0], "type": "Point"}, "properties": {"city_name": "Bergamo", "mentions": 1}, "type": "Feature"}, {"geometry": {"coordinates": [7.7270296, 51.0946826, 0], "type": "Point"}, "properties": {"city_name": "Hardenberg", "mentions": 5}, "type": "Feature"}, {"geometry": {"coordinates": [10.7389701, 59.913330099999996, 0], "type": "Point"}, "properties": {"city_name": "Oslo", "mentions": 17}, "type": "Feature"}, {"geometry": {"coordinates": [13.5170982, 43.6170137, 0], "type": "Point"}, "properties": {"city_name": "Ancona", "mentions": 4}, "type": "Feature"}, {"geometry": {"coordinates": [2.8319805000000002, 50.4291723, 0], "type": "Point"}, "properties": {"city_name": "Lens", "mentions": 6}, "type": "Feature"}, {"geometry": {"coordinates": [11.6186451, 44.837273700000004, 0], "type": "Point"}, "properties": {"city_name": "Ferrara", "mentions": 5}, "type": "Feature"}, {"geometry": {"coordinates": [6.235143099999999, 44.0918144, 0], "type": "Point"}, "properties": {"city_name": "Digne", "mentions": 1}, "type": "Feature"}, {"geometry": {"coordinates": [26.9281768, 46.924875799999995, 0], "type": "Point"}, "properties": {"city_name": "Roman", "mentions": 20}, "type": "Feature"}, {"geometry": {"coordinates": [4.264729099999999, 39.8894325, 0], "type": "Point"}, "properties": {"city_name": "Mahon", "mentions": 1}, "type": "Feature"}, {"geometry": {"coordinates": [19.1278294, 47.778287299999995, 0], "type": "Point"}, "properties": {"city_name": "Vac", "mentions": 16}, "type": "Feature"}, {"geometry": {"coordinates": [8.651177, 49.872775, 0], "type": "Point"}, "properties": {"city_name": "Darmstadt", "mentions": 1}, "type": "Feature"}, {"geometry": {"coordinates": [7.3579641, 48.07775170000001, 0], "type": "Point"}, "properties": {"city_name": "Colmar", "mentions": 1}, "type": "Feature"}, {"geometry": {"coordinates": [13.460974400000001, 48.5748229, 0], "type": "Point"}, "properties": {"city_name": "Passau", "mentions": 1}, "type": "Feature"}, {"geometry": {"coordinates": [4.4811088666204295, 52.1518157, 0], "type": "Point"}, "properties": {"city_name": "Leiden", "mentions": 7}, "type": "Feature"}, {"geometry": {"coordinates": [0.545812, 46.8180047, 0], "type": "Point"}, "properties": {"city_name": "Chatellerault", "mentions": 1}, "type": "Feature"}, {"geometry": {"coordinates": [-0.3690815, 49.182800799999995, 0], "type": "Point"}, "properties": {"city_name": "Caen", "mentions": 2}, "type": "Feature"}, {"geometry": {"coordinates": [11.5478825, 45.5488306, 0], "type": "Point"}, "properties": {"city_name": "Vicenza", "mentions": 3}, "type": "Feature"}, {"geometry": {"coordinates": [13.000156599999999, 55.6052931, 0], "type": "Point"}, "properties": {"city_name": "Malmoe", "mentions": 3}, "type": "Feature"}, {"geometry": {"coordinates": [1.1076133, 41.1555564, 0], "type": "Point"}, "properties": {"city_name": "Reus", "mentions": 3}, "type": "Feature"}, {"geometry": {"coordinates": [2.0823355, 49.43009970000001, 0], "type": "Point"}, "properties": {"city_name": "Beauvais", "mentions": 2}, "type": "Feature"}, {"geometry": {"coordinates": [-2.0820103, 52.511472700000006, 0], "type": "Point"}, "properties": {"city_name": "Dudley", "mentions": 1}, "type": "Feature"}, {"geometry": {"coordinates": [10.964463, 50.258112, 0], "type": "Point"}, "properties": {"city_name": "Coburg", "mentions": 1}, "type": "Feature"}, {"geometry": {"coordinates": [10.4018624, 43.715939500000005, 0], "type": "Point"}, "properties": {"city_name": "Pisa", "mentions": 6}, "type": "Feature"}, {"geometry": {"coordinates": [142.13213480000002, 46.8166594, 0], "type": "Point"}, "properties": {"city_name": "Riga", "mentions": 3}, "type": "Feature"}, {"geometry": {"coordinates": [1.3408308999999998, 51.2752527, 0], "type": "Point"}, "properties": {"city_name": "Sandwich", "mentions": 1}, "type": "Feature"}, {"geometry": {"coordinates": [6.6441878, 49.7596208, 0], "type": "Point"}, "properties": {"city_name": "Trier", "mentions": 14}, "type": "Feature"}, {"geometry": {"coordinates": [-2.7051618, 53.7589938, 0], "type": "Point"}, "properties": {"city_name": "Preston", "mentions": 4}, "type": "Feature"}, {"geometry": {"coordinates": [10.2134046, 56.14962779999999, 0], "type": "Point"}, "properties": {"city_name": "Aarhus", "mentions": 82}, "type": "Feature"}, {"geometry": {"coordinates": [-0.0395734, 41.2366709, 0], "type": "Point"}, "properties": {"city_name": "Caspe", "mentions": 2}, "type": "Feature"}, {"geometry": {"coordinates": [2.7364119, 47.9990047, 0], "type": "Point"}, "properties": {"city_name": "Montargis", "mentions": 2}, "type": "Feature"}, {"geometry": {"coordinates": [12.5700724, 55.6867243, 0], "type": "Point"}, "properties": {"city_name": "Kjøbenhavn", "mentions": 551}, "type": "Feature"}, {"geometry": {"coordinates": [8.1123441, 49.1982825, 0], "type": "Point"}, "properties": {"city_name": "Landau", "mentions": 1}, "type": "Feature"}, {"geometry": {"coordinates": [3.282606, 48.1978559, 0], "type": "Point"}, "properties": {"city_name": "Sens", "mentions": 5}, "type": "Feature"}, {"geometry": {"coordinates": [0.2402095, 47.166718200000005, 0], "type": "Point"}, "properties": {"city_name": "Chinon", "mentions": 1}, "type": "Feature"}, {"geometry": {"coordinates": [10.385783, 42.7615052, 0], "type": "Point"}, "properties": {"city_name": "Mola", "mentions": 2}, "type": "Feature"}, {"geometry": {"coordinates": [25.9542057, 43.84804129999999, 0], "type": "Point"}, "properties": {"city_name": "Ruse", "mentions": 6}, "type": "Feature"}, {"geometry": {"coordinates": [10.8986971, 48.3668041, 0], "type": "Point"}, "properties": {"city_name": "Augsburg", "mentions": 1}, "type": "Feature"}, {"geometry": {"coordinates": [2.6608169, 48.539927, 0], "type": "Point"}, "properties": {"city_name": "Melun", "mentions": 1}, "type": "Feature"}, {"geometry": {"coordinates": [-2.7540093999999997, 52.7078866, 0], "type": "Point"}, "properties": {"city_name": "Shrewsbury", "mentions": 1}, "type": "Feature"}, {"geometry": {"coordinates": [3.2988089, 48.5602959, 0], "type": "Point"}, "properties": {"city_name": "Provins", "mentions": 4}, "type": "Feature"}, {"geometry": {"coordinates": [8.214601700000001, 53.138975300000006, 0], "type": "Point"}, "properties": {"city_name": "Oldenburg", "mentions": 23}, "type": "Feature"}, {"geometry": {"coordinates": [1.0939658, 49.4404591, 0], "type": "Point"}, "properties": {"city_name": "Rouen", "mentions": 2}, "type": "Feature"}, {"geometry": {"coordinates": [12.1286127, 54.09244449999999, 0], "type": "Point"}, "properties": {"city_name": "Rostock", "mentions": 6}, "type": "Feature"}, {"geometry": {"coordinates": [-121.87676640000001, 37.239243, 0], "type": "Point"}, "properties": {"city_name": "Porto", "mentions": 5}, "type": "Feature"}, {"geometry": {"coordinates": [10.309145599999999, 43.5507411, 0], "type": "Point"}, "properties": {"city_name": "Livorno", "mentions": 14}, "type": "Feature"}, {"geometry": {"coordinates": [27.915085499999996, 43.206902500000005, 0], "type": "Point"}, "properties": {"city_name": "Varna", "mentions": 1}, "type": "Feature"}, {"geometry": {"coordinates": [12.2422442, 44.136352, 0], "type": "Point"}, "properties": {"city_name": "Cesena", "mentions": 1}, "type": "Feature"}, {"geometry": {"coordinates": [7.013441800000001, 43.551519799999994, 0], "type": "Point"}, "properties": {"city_name": "Cannes", "mentions": 1}, "type": "Feature"}, {"geometry": {"coordinates": [0.6889268, 47.3900474, 0], "type": "Point"}, "properties": {"city_name": "Tours", "mentions": 5}, "type": "Feature"}, {"geometry": {"coordinates": [3.61007100494229, 51.50529485, 0], "type": "Point"}, "properties": {"city_name": "Middelburg", "mentions": 2}, "type": "Feature"}, {"geometry": {"coordinates": [10.502875999999999, 43.8428381, 0], "type": "Point"}, "properties": {"city_name": "Lucca", "mentions": 1}, "type": "Feature"}, {"geometry": {"coordinates": [5.7324722, 58.968042700000005, 0], "type": "Point"}, "properties": {"city_name": "Stavanger", "mentions": 9}, "type": "Feature"}, {"geometry": {"coordinates": [10.2134046, 56.14962779999999, 0], "type": "Point"}, "properties": {"city_name": "Århus", "mentions": 5}, "type": "Feature"}, {"geometry": {"coordinates": [7.0028334, 51.3882195, 0], "type": "Point"}, "properties": {"city_name": "Werden", "mentions": 5}, "type": "Feature"}, {"geometry": {"coordinates": [9.4059354, 56.4469128, 0], "type": "Point"}, "properties": {"city_name": "Viborg", "mentions": 86}, "type": "Feature"}, {"geometry": {"coordinates": [13.5713017, 37.8250916, 0], "type": "Point"}, "properties": {"city_name": "Vicari", "mentions": 8}, "type": "Feature"}, {"geometry": {"coordinates": [8.3603088, 49.6352685, 0], "type": "Point"}, "properties": {"city_name": "Worms", "mentions": 10}, "type": "Feature"}, {"geometry": {"coordinates": [3.4991057, 44.5180226, 0], "type": "Point"}, "properties": {"city_name": "Mende", "mentions": 10}, "type": "Feature"}, {"geometry": {"coordinates": [8.8071646, 53.0758196, 0], "type": "Point"}, "properties": {"city_name": "Bremen", "mentions": 61}, "type": "Feature"}, {"geometry": {"coordinates": [21.905737, 43.322489000000004, 0], "type": "Point"}, "properties": {"city_name": "Nis", "mentions": 10}, "type": "Feature"}, {"geometry": {"coordinates": [10.328083300000001, 44.801367799999994, 0], "type": "Point"}, "properties": {"city_name": "Parma", "mentions": 9}, "type": "Feature"}, {"geometry": {"coordinates": [-6.834213900000001, 38.627396000000005, 0], "type": "Point"}, "properties": {"city_name": "Gibraltar", "mentions": 16}, "type": "Feature"}, {"geometry": {"coordinates": [13.666708999999999, 41.461618, 0], "type": "Point"}, "properties": {"city_name": "Pontecorvo", "mentions": 1}, "type": "Feature"}, {"geometry": {"coordinates": [-1.475099, 43.49333789999999, 0], "type": "Point"}, "properties": {"city_name": "Bayonne", "mentions": 3}, "type": "Feature"}, {"geometry": {"coordinates": [9.1904984, 45.4667971, 0], "type": "Point"}, "properties": {"city_name": "Milano", "mentions": 8}, "type": "Feature"}, {"geometry": {"coordinates": [5.5734203, 50.6451381, 0], "type": "Point"}, "properties": {"city_name": "Liege", "mentions": 1}, "type": "Feature"}, {"geometry": {"coordinates": [5.3970648, 43.8757936, 0], "type": "Point"}, "properties": {"city_name": "Apt", "mentions": 2}, "type": "Feature"}, {"geometry": {"coordinates": [14.2502445, 37.06643629999999, 0], "type": "Point"}, "properties": {"city_name": "Gela", "mentions": 1}, "type": "Feature"}, {"geometry": {"coordinates": [-2.0037523, 55.77020529999999, 0], "type": "Point"}, "properties": {"city_name": "Berwick", "mentions": 4}, "type": "Feature"}, {"geometry": {"coordinates": [22.348744268808304, 37.52646585, 0], "type": "Point"}, "properties": {"city_name": "Tripolis", "mentions": 2}, "type": "Feature"}, {"geometry": {"coordinates": [10.1395519, 44.0359323, 0], "type": "Point"}, "properties": {"city_name": "Massa", "mentions": 2}, "type": "Feature"}, {"geometry": {"coordinates": [4.943340900000001, 49.7033759, 0], "type": "Point"}, "properties": {"city_name": "Sedan", "mentions": 10}, "type": "Feature"}, {"geometry": {"coordinates": [9.1546375, 45.18600429999999, 0], "type": "Point"}, "properties": {"city_name": "Pavia", "mentions": 1}, "type": "Feature"}, {"geometry": {"coordinates": [-3.4335462999999997, 56.3957679, 0], "type": "Point"}, "properties": {"city_name": "Perth", "mentions": 1}, "type": "Feature"}, {"geometry": {"coordinates": [12.434098800000001, 50.9852411, 0], "type": "Point"}, "properties": {"city_name": "Altenburg", "mentions": 4}, "type": "Feature"}, {"geometry": {"coordinates": [4.2374349, 50.7360524, 0], "type": "Point"}, "properties": {"city_name": "Halle", "mentions": 3}, "type": "Feature"}, {"geometry": {"coordinates": [12.0974869, 49.0195333, 0], "type": "Point"}, "properties": {"city_name": "Regensburg", "mentions": 3}, "type": "Feature"}, {"geometry": {"coordinates": [4.48862326925829, 51.92779805, 0], "type": "Point"}, "properties": {"city_name": "Rotterdam", "mentions": 1}, "type": "Feature"}, {"geometry": {"coordinates": [1.8337028999999998, 50.106083500000004, 0], "type": "Point"}, "properties": {"city_name": "Abbeville", "mentions": 4}, "type": "Feature"}, {"geometry": {"coordinates": [10.7925317, 51.505157399999995, 0], "type": "Point"}, "properties": {"city_name": "Nordhausen", "mentions": 4}, "type": "Feature"}, {"geometry": {"coordinates": [3.0761377, 50.370368299999996, 0], "type": "Point"}, "properties": {"city_name": "Douai", "mentions": 1}, "type": "Feature"}, {"geometry": {"coordinates": [13.388859900000002, 52.517036499999996, 0], "type": "Point"}, "properties": {"city_name": "Berlin", "mentions": 137}, "type": "Feature"}, {"geometry": {"coordinates": [-5.000457599999999, 41.5009213, 0], "type": "Point"}, "properties": {"city_name": "Tordesillas", "mentions": 1}, "type": "Feature"}, {"geometry": {"coordinates": [1.0108998, 49.2871086, 0], "type": "Point"}, "properties": {"city_name": "Elbeuf", "mentions": 4}, "type": "Feature"}, {"geometry": {"coordinates": [-4.033442, 55.7759095, 0], "type": "Point"}, "properties": {"city_name": "Hamilton", "mentions": 36}, "type": "Feature"}, {"geometry": {"coordinates": [3.7769485, 50.6311349, 0], "type": "Point"}, "properties": {"city_name": "Ath", "mentions": 27}, "type": "Feature"}, {"geometry": {"coordinates": [16.372504199999998, 48.2083537, 0], "type": "Point"}, "properties": {"city_name": "Wien", "mentions": 40}, "type": "Feature"}, {"geometry": {"coordinates": [12.081924699999998, 55.6433478, 0], "type": "Point"}, "properties": {"city_name": "Roskilde", "mentions": 59}, "type": "Feature"}, {"geometry": {"coordinates": [1.3337639, 47.587686100000006, 0], "type": "Point"}, "properties": {"city_name": "Blois", "mentions": 3}, "type": "Feature"}, {"geometry": {"coordinates": [-0.0045417, 51.4820845, 0], "type": "Point"}, "properties": {"city_name": "Greenwich", "mentions": 1}, "type": "Feature"}, {"geometry": {"coordinates": [8.4810315, 44.3080251, 0], "type": "Point"}, "properties": {"city_name": "Savona", "mentions": 1}, "type": "Feature"}, {"geometry": {"coordinates": [37.617540000000005, 54.193032099999996, 0], "type": "Point"}, "properties": {"city_name": "Tula", "mentions": 1}, "type": "Feature"}, {"geometry": {"coordinates": [-1.29599212115953, 46.78251545, 0], "type": "Point"}, "properties": {"city_name": "Boulogne", "mentions": 3}, "type": "Feature"}, {"geometry": {"coordinates": [5.4304381741379295, 51.89242535, 0], "type": "Point"}, "properties": {"city_name": "Tiel", "mentions": 6}, "type": "Feature"}, {"geometry": {"coordinates": [-0.7692125, 38.3459902, 0], "type": "Point"}, "properties": {"city_name": "Aspe", "mentions": 2}, "type": "Feature"}, {"geometry": {"coordinates": [-1.2578499, 51.7520131, 0], "type": "Point"}, "properties": {"city_name": "Oxford", "mentions": 12}, "type": "Feature"}, {"geometry": {"coordinates": [-7.8650368, 38.0154479, 0], "type": "Point"}, "properties": {"city_name": "Beja", "mentions": 1}, "type": "Feature"}, {"geometry": {"coordinates": [9.4333264, 54.78330210000001, 0], "type": "Point"}, "properties": {"city_name": "Flensburg", "mentions": 6}, "type": "Feature"}, {"geometry": {"coordinates": [-4.421636599999999, 36.7213028, 0], "type": "Point"}, "properties": {"city_name": "Malaga", "mentions": 1}, "type": "Feature"}, {"geometry": {"coordinates": [11.659796, 45.2240069, 0], "type": "Point"}, "properties": {"city_name": "Este", "mentions": 16}, "type": "Feature"}, {"geometry": {"coordinates": [5.55292890936074, 53.18382835, 0], "type": "Point"}, "properties": {"city_name": "Franeker", "mentions": 1}, "type": "Feature"}, {"geometry": {"coordinates": [11.343034699999999, 44.4936714, 0], "type": "Point"}, "properties": {"city_name": "Bologna", "mentions": 2}, "type": "Feature"}, {"geometry": {"coordinates": [-0.5515588, 47.473988399999996, 0], "type": "Point"}, "properties": {"city_name": "Angers", "mentions": 8}, "type": "Feature"}, {"geometry": {"coordinates": [1.4442469, 43.6044622, 0], "type": "Point"}, "properties": {"city_name": "Toulouse", "mentions": 1}, "type": "Feature"}, {"geometry": {"coordinates": [-1.1330788999999999, 52.636139799999995, 0], "type": "Point"}, "properties": {"city_name": "Leicester", "mentions": 2}, "type": "Feature"}, {"geometry": {"coordinates": [7.011429, 51.457087, 0], "type": "Point"}, "properties": {"city_name": "Essen", "mentions": 6}, "type": "Feature"}, {"geometry": {"coordinates": [9.452542, 42.7065505, 0], "type": "Point"}, "properties": {"city_name": "Bastia", "mentions": 1}, "type": "Feature"}, {"geometry": {"coordinates": [16.8620293, 41.1257843, 0], "type": "Point"}, "properties": {"city_name": "Bari", "mentions": 3}, "type": "Feature"}, {"geometry": {"coordinates": [10.2204897, 45.539939200000006, 0], "type": "Point"}, "properties": {"city_name": "Brescia", "mentions": 3}, "type": "Feature"}, {"geometry": {"coordinates": [5.12768031549829, 52.08095165, 0], "type": "Point"}, "properties": {"city_name": "Utrecht", "mentions": 8}, "type": "Feature"}, {"geometry": {"coordinates": [2.7015872000000005, 48.4049375, 0], "type": "Point"}, "properties": {"city_name": "Fontainebleau", "mentions": 1}, "type": "Feature"}, {"geometry": {"coordinates": [3.1577203, 46.9876601, 0], "type": "Point"}, "properties": {"city_name": "Nevers", "mentions": 2}, "type": "Feature"}, {"geometry": {"coordinates": [9.0538156, 54.485363799999995, 0], "type": "Point"}, "properties": {"city_name": "Husum", "mentions": 3}, "type": "Feature"}, {"geometry": {"coordinates": [5.8941759000000005, 48.6762624, 0], "type": "Point"}, "properties": {"city_name": "Toul", "mentions": 4}, "type": "Feature"}, {"geometry": {"coordinates": [131.4449817, 43.029595799999996, 0], "type": "Point"}, "properties": {"city_name": "Narva", "mentions": 4}, "type": "Feature"}, {"geometry": {"coordinates": [29.476082, 46.830942, 0], "type": "Point"}, "properties": {"city_name": "Bender", "mentions": 4}, "type": "Feature"}, {"geometry": {"coordinates": [13.0904622, 54.3159851, 0], "type": "Point"}, "properties": {"city_name": "Stralsund", "mentions": 26}, "type": "Feature"}, {"geometry": {"coordinates": [26.726972999999997, 58.369766000000006, 0], "type": "Point"}, "properties": {"city_name": "Tartu", "mentions": 2}, "type": "Feature"}, {"geometry": {"coordinates": [8.025636, 44.691542, 0], "type": "Point"}, "properties": {"city_name": "Alba", "mentions": 6}, "type": "Feature"}, {"geometry": {"coordinates": [10.081052, 52.624056, 0], "type": "Point"}, "properties": {"city_name": "Celle", "mentions": 4}, "type": "Feature"}, {"geometry": {"coordinates": [1.4881434, 48.4438601, 0], "type": "Point"}, "properties": {"city_name": "Chartres", "mentions": 2}, "type": "Feature"}, {"geometry": {"coordinates": [5.9304919, 43.125731099999996, 0], "type": "Point"}, "properties": {"city_name": "Toulon", "mentions": 2}, "type": "Feature"}, {"geometry": {"coordinates": [3.9519580000000003, 50.4549568, 0], "type": "Point"}, "properties": {"city_name": "Mons", "mentions": 96}, "type": "Feature"}, {"geometry": {"coordinates": [-1.3131692, 51.0612766, 0], "type": "Point"}, "properties": {"city_name": "Winchester", "mentions": 1}, "type": "Feature"}, {"geometry": {"coordinates": [6.0820018, 44.561197799999995, 0], "type": "Point"}, "properties": {"city_name": "Gap", "mentions": 10}, "type": "Feature"}, {"geometry": {"coordinates": [11.537191002239801, 59.06805550000001, 0], "type": "Point"}, "properties": {"city_name": "Halden", "mentions": 2}, "type": "Feature"}, {"geometry": {"coordinates": [11.6399609, 52.1315889, 0], "type": "Point"}, "properties": {"city_name": "Magdeburg", "mentions": 4}, "type": "Feature"}, {"geometry": {"coordinates": [10.917423800000002, 43.9336213, 0], "type": "Point"}, "properties": {"city_name": "Pistoia", "mentions": 2}, "type": "Feature"}, {"geometry": {"coordinates": [-0.7723499, 48.071037700000005, 0], "type": "Point"}, "properties": {"city_name": "Laval", "mentions": 6}, "type": "Feature"}, {"geometry": {"coordinates": [13.0046538, 51.55812720000001, 0], "type": "Point"}, "properties": {"city_name": "Torgau", "mentions": 1}, "type": "Feature"}, {"geometry": {"coordinates": [6.568007700000001, 53.2190652, 0], "type": "Point"}, "properties": {"city_name": "Groningen", "mentions": 6}, "type": "Feature"}, {"geometry": {"coordinates": [1.87468, 50.9488, 0], "type": "Point"}, "properties": {"city_name": "Calais", "mentions": 12}, "type": "Feature"}, {"geometry": {"coordinates": [12.6136135, 56.0345277, 0], "type": "Point"}, "properties": {"city_name": "Helsingør", "mentions": 74}, "type": "Feature"}, {"geometry": {"coordinates": [13.381523800000002, 54.095791000000006, 0], "type": "Point"}, "properties": {"city_name": "Greifswald", "mentions": 2}, "type": "Feature"}, {"geometry": {"coordinates": [9.67086007564374, 59.59455005, 0], "type": "Point"}, "properties": {"city_name": "Kongsberg", "mentions": 4}, "type": "Feature"}, {"geometry": {"coordinates": [8.276251299999998, 50.0012314, 0], "type": "Point"}, "properties": {"city_name": "Mainz", "mentions": 1}, "type": "Feature"}, {"geometry": {"coordinates": [3.7250121, 51.0538286, 0], "type": "Point"}, "properties": {"city_name": "Gent", "mentions": 11}, "type": "Feature"}, {"geometry": {"coordinates": [12.5700724, 55.6867243, 0], "type": "Point"}, "properties": {"city_name": "København", "mentions": 5}, "type": "Feature"}, {"geometry": {"coordinates": [-4.424932900000001, 55.8481954, 0], "type": "Point"}, "properties": {"city_name": "Paisley", "mentions": 1}, "type": "Feature"}, {"geometry": {"coordinates": [0.5850506999999999, 43.646355799999995, 0], "type": "Point"}, "properties": {"city_name": "Auch", "mentions": 2}, "type": "Feature"}, {"geometry": {"coordinates": [14.5722829, 40.7376592, 0], "type": "Point"}, "properties": {"city_name": "Angri", "mentions": 16}, "type": "Feature"}, {"geometry": {"coordinates": [4.8320114, 45.75781370000001, 0], "type": "Point"}, "properties": {"city_name": "Lyon", "mentions": 5}, "type": "Feature"}, {"geometry": {"coordinates": [12.2429261, 51.8311104, 0], "type": "Point"}, "properties": {"city_name": "Dessau", "mentions": 1}, "type": "Feature"}, {"geometry": {"coordinates": [11.0554519, 51.892656099999996, 0], "type": "Point"}, "properties": {"city_name": "Halberstadt", "mentions": 3}, "type": "Feature"}, {"geometry": {"coordinates": [-0.36856679999999997, 43.2957547, 0], "type": "Point"}, "properties": {"city_name": "Pau", "mentions": 58}, "type": "Feature"}, {"geometry": {"coordinates": [5.7357819, 45.1875602, 0], "type": "Point"}, "properties": {"city_name": "Grenoble", "mentions": 1}, "type": "Feature"}, {"geometry": {"coordinates": [-2.9974967, 51.588233200000005, 0], "type": "Point"}, "properties": {"city_name": "Newport", "mentions": 1}, "type": "Feature"}, {"geometry": {"coordinates": [-8.429205699999999, 40.2109801, 0], "type": "Point"}, "properties": {"city_name": "Coimbra", "mentions": 1}, "type": "Feature"}, {"geometry": {"coordinates": [2.1266886, 48.8035403, 0], "type": "Point"}, "properties": {"city_name": "Versailles", "mentions": 5}, "type": "Feature"}, {"geometry": {"coordinates": [0.3516343, 41.5206796, 0], "type": "Point"}, "properties": {"city_name": "Fraga", "mentions": 1}, "type": "Feature"}, {"geometry": {"coordinates": [15.9711628, 47.281612599999995, 0], "type": "Point"}, "properties": {"city_name": "Bella", "mentions": 2}, "type": "Feature"}, {"geometry": {"coordinates": [18.297982, 57.637936100000005, 0], "type": "Point"}, "properties": {"city_name": "Visby", "mentions": 3}, "type": "Feature"}, {"geometry": {"coordinates": [-1.0756139999999998, 50.8036831, 0], "type": "Point"}, "properties": {"city_name": "Portsmouth", "mentions": 1}, "type": "Feature"}, {"geometry": {"coordinates": [12.6405466, 42.5641417, 0], "type": "Point"}, "properties": {"city_name": "Terni", "mentions": 4}, "type": "Feature"}, {"geometry": {"coordinates": [4.7512296784898895, 51.5644477, 0], "type": "Point"}, "properties": {"city_name": "Breda", "mentions": 4}, "type": "Feature"}, {"geometry": {"coordinates": [4.569651599999999, 51.131069000000004, 0], "type": "Point"}, "properties": {"city_name": "Lier", "mentions": 1}, "type": "Feature"}, {"geometry": {"coordinates": [-1.7951176, 51.073661200000004, 0], "type": "Point"}, "properties": {"city_name": "Salisbury", "mentions": 2}, "type": "Feature"}, {"geometry": {"coordinates": [6.1326288, 50.048301, 0], "type": "Point"}, "properties": {"city_name": "Burg", "mentions": 34}, "type": "Feature"}, {"geometry": {"coordinates": [-0.1276474, 51.5073219, 0], "type": "Point"}, "properties": {"city_name": "London", "mentions": 121}, "type": "Feature"}, {"geometry": {"coordinates": [10.135555, 54.3227085, 0], "type": "Point"}, "properties": {"city_name": "Kiel", "mentions": 102}, "type": "Feature"}, {"geometry": {"coordinates": [2.2385432, 48.8126688, 0], "type": "Point"}, "properties": {"city_name": "Meudon", "mentions": 1}, "type": "Feature"}, {"geometry": {"coordinates": [-1.4702278, 53.38066260000001, 0], "type": "Point"}, "properties": {"city_name": "Sheffield", "mentions": 2}, "type": "Feature"}, {"geometry": {"coordinates": [3.620686, 49.564665000000005, 0], "type": "Point"}, "properties": {"city_name": "Laon", "mentions": 1}, "type": "Feature"}, {"geometry": {"coordinates": [12.829673399999999, 55.8698007, 0], "type": "Point"}, "properties": {"city_name": "Landskrona", "mentions": 3}, "type": "Feature"}, {"geometry": {"coordinates": [13.430031, 41.3572854, 0], "type": "Point"}, "properties": {"city_name": "Fondi", "mentions": 3}, "type": "Feature"}, {"geometry": {"coordinates": [9.086044000000001, 45.81082, 0], "type": "Point"}, "properties": {"city_name": "Como", "mentions": 8}, "type": "Feature"}, {"geometry": {"coordinates": [10.000653999999999, 53.550341, 0], "type": "Point"}, "properties": {"city_name": "Hamburg", "mentions": 12}, "type": "Feature"}, {"geometry": {"coordinates": [-3.7035824999999996, 40.416704700000004, 0], "type": "Point"}, "properties": {"city_name": "Madrid", "mentions": 6}, "type": "Feature"}, {"geometry": {"coordinates": [13.530423800000001, 41.2910946, 0], "type": "Point"}, "properties": {"city_name": "Itri", "mentions": 1}, "type": "Feature"}, {"geometry": {"coordinates": [9.77766972686892, 53.58646755, 0], "type": "Point"}, "properties": {"city_name": "Altona", "mentions": 16}, "type": "Feature"}, {"geometry": {"coordinates": [12.646761, 51.8666527, 0], "type": "Point"}, "properties": {"city_name": "Wittenberg", "mentions": 17}, "type": "Feature"}, {"geometry": {"coordinates": [13.614104999999999, 41.715723, 0], "type": "Point"}, "properties": {"city_name": "Sora", "mentions": 3}, "type": "Feature"}, {"geometry": {"coordinates": [15.732769000000001, 40.378311, 0], "type": "Point"}, "properties": {"city_name": "Paterno", "mentions": 1}, "type": "Feature"}, {"geometry": {"coordinates": [12.0409384, 44.222601700000006, 0], "type": "Point"}, "properties": {"city_name": "Forli", "mentions": 50}, "type": "Feature"}, {"geometry": {"coordinates": [13.7381437, 51.0493286, 0], "type": "Point"}, "properties": {"city_name": "Dresden", "mentions": 13}, "type": "Feature"}, {"geometry": {"coordinates": [10.6085739, 55.063888399999996, 0], "type": "Point"}, "properties": {"city_name": "Svendborg", "mentions": 50}, "type": "Feature"}, {"geometry": {"coordinates": [1.9086066000000002, 47.9027336, 0], "type": "Point"}, "properties": {"city_name": "Orleans", "mentions": 10}, "type": "Feature"}, {"geometry": {"coordinates": [13.4535897, 43.3007275, 0], "type": "Point"}, "properties": {"city_name": "Macerata", "mentions": 1}, "type": "Feature"}, {"geometry": {"coordinates": [10.9255707, 44.6458885, 0], "type": "Point"}, "properties": {"city_name": "Modena", "mentions": 5}, "type": "Feature"}, {"geometry": {"coordinates": [4.89797550561798, 52.3745403, 0], "type": "Point"}, "properties": {"city_name": "Amsterdam", "mentions": 19}, "type": "Feature"}, {"geometry": {"coordinates": [4.832852, 45.0675156, 0], "type": "Point"}, "properties": {"city_name": "Tournon", "mentions": 1}, "type": "Feature"}, {"geometry": {"coordinates": [0.983698, 47.4110351, 0], "type": "Point"}, "properties": {"city_name": "Amboise", "mentions": 2}, "type": "Feature"}, {"geometry": {"coordinates": [14.2487826, 40.835933600000004, 0], "type": "Point"}, "properties": {"city_name": "Napoli", "mentions": 5}, "type": "Feature"}, {"geometry": {"coordinates": [-5.914770099999999, 43.1094813, 0], "type": "Point"}, "properties": {"city_name": "Corral", "mentions": 1}, "type": "Feature"}, {"geometry": {"coordinates": [19.9580758, 40.7018636, 0], "type": "Point"}, "properties": {"city_name": "Berat", "mentions": 3}, "type": "Feature"}, {"geometry": {"coordinates": [11.8604618783394, 43.4640246, 0], "type": "Point"}, "properties": {"city_name": "Arezzo", "mentions": 2}, "type": "Feature"}, {"geometry": {"coordinates": [10.4266284, 51.9059936, 0], "type": "Point"}, "properties": {"city_name": "Goslar", "mentions": 2}, "type": "Feature"}, {"geometry": {"coordinates": [4.3997081, 51.2211097, 0], "type": "Point"}, "properties": {"city_name": "Antwerpen", "mentions": 6}, "type": "Feature"}, {"geometry": {"coordinates": [6.083862, 50.776351, 0], "type": "Point"}, "properties": {"city_name": "Aachen", "mentions": 1}, "type": "Feature"}, {"geometry": {"coordinates": [20.3743665, 47.898988700000004, 0], "type": "Point"}, "properties": {"city_name": "Eger", "mentions": 6}, "type": "Feature"}, {"geometry": {"coordinates": [17.3324733, 50.473802899999995, 0], "type": "Point"}, "properties": {"city_name": "Nysa", "mentions": 2}, "type": "Feature"}, {"geometry": {"coordinates": [18.0710935, 59.3251172, 0], "type": "Point"}, "properties": {"city_name": "Stockholm", "mentions": 90}, "type": "Feature"}, {"geometry": {"coordinates": [14.0239063, 40.764999100000004, 0], "type": "Point"}, "properties": {"city_name": "Procida", "mentions": 1}, "type": "Feature"}, {"geometry": {"coordinates": [11.0287364, 50.9777974, 0], "type": "Point"}, "properties": {"city_name": "Erfurt", "mentions": 4}, "type": "Feature"}, {"geometry": {"coordinates": [4.0729178, 46.0345572, 0], "type": "Point"}, "properties": {"city_name": "Roanne", "mentions": 2}, "type": "Feature"}, {"geometry": {"coordinates": [6.131367415330139, 51.785483899999996, 0], "type": "Point"}, "properties": {"city_name": "Kleve", "mentions": 1}, "type": "Feature"}, {"geometry": {"coordinates": [5.0528680999999995, 45.0458886, 0], "type": "Point"}, "properties": {"city_name": "Romans", "mentions": 1}, "type": "Feature"}, {"geometry": {"coordinates": [20.3531679, 40.2332541, 0], "type": "Point"}, "properties": {"city_name": "Permet", "mentions": 1}, "type": "Feature"}, {"geometry": {"coordinates": [2.3514992, 48.856610100000005, 0], "type": "Point"}, "properties": {"city_name": "Paris", "mentions": 279}, "type": "Feature"}, {"geometry": {"coordinates": [5.4263436049647105, 43.514925399999996, 0], "type": "Point"}, "properties": {"city_name": "Orange", "mentions": 5}, "type": "Feature"}, {"geometry": {"coordinates": [2.2956951, 49.8941708, 0], "type": "Point"}, "properties": {"city_name": "Amiens", "mentions": 4}, "type": "Feature"}, {"geometry": {"coordinates": [8.1061259, 51.5725501, 0], "type": "Point"}, "properties": {"city_name": "Soest", "mentions": 1}, "type": "Feature"}, {"geometry": {"coordinates": [9.6645115, 54.3046701, 0], "type": "Point"}, "properties": {"city_name": "Rendsburg", "mentions": 4}, "type": "Feature"}, {"geometry": {"coordinates": [19.7136301805999, 52.5353471, 0], "type": "Point"}, "properties": {"city_name": "Plock", "mentions": 1}, "type": "Feature"}, {"geometry": {"coordinates": [7.10066, 50.735851000000004, 0], "type": "Point"}, "properties": {"city_name": "Bonn", "mentions": 33}, "type": "Feature"}, {"geometry": {"coordinates": [0.6176324000000001, 44.2015624, 0], "type": "Point"}, "properties": {"city_name": "Agen", "mentions": 22}, "type": "Feature"}, {"geometry": {"coordinates": [13.0591397, 52.4009309, 0], "type": "Point"}, "properties": {"city_name": "Potsdam", "mentions": 8}, "type": "Feature"}], "type": "FeatureCollection"}