{"features": [{"geometry": {"coordinates": [9.905333, 55.271213, 0], "type": "Point"}, "properties": {"city_name": "Assens", "mentions": 5}, "type": "Feature"}, {"geometry": {"coordinates": [10.092232000000001, 52.61909, 0], "type": "Point"}, "properties": {"city_name": "Celle", "mentions": 1}, "type": "Feature"}, {"geometry": {"coordinates": [9.737141000000001, 52.38497, 0], "type": "Point"}, "properties": {"city_name": "Hannover", "mentions": 15}, "type": "Feature"}, {"geometry": {"coordinates": [8.3, 56.533333, 0], "type": "Point"}, "properties": {"city_name": "Lemvig", "mentions": 3}, "type": "Feature"}, {"geometry": {"coordinates": [12.17773, 49.732873, 0], "type": "Point"}, "properties": {"city_name": "Neustadt", "mentions": 1}, "type": "Feature"}, {"geometry": {"coordinates": [12.7, 56.05, 0], "type": "Point"}, "properties": {"city_name": "Helsingborg", "mentions": 14}, "type": "Feature"}, {"geometry": {"coordinates": [8.757492999999998, 51.718127, 0], "type": "Point"}, "properties": {"city_name": "Paderborn", "mentions": 3}, "type": "Feature"}, {"geometry": {"coordinates": [12.6377, 51.867470000000004, 0], "type": "Point"}, "properties": {"city_name": "Wittenberg", "mentions": 2}, "type": "Feature"}, {"geometry": {"coordinates": [11.004408, 60.212364, 0], "type": "Point"}, "properties": {"city_name": "Nannestad", "mentions": 1}, "type": "Feature"}, {"geometry": {"coordinates": [13.166667000000002, 55.36666700000001, 0], "type": "Point"}, "properties": {"city_name": "Trelleborg", "mentions": 1}, "type": "Feature"}, {"geometry": {"coordinates": [16.366667, 56.666667000000004, 0], "type": "Point"}, "properties": {"city_name": "Kalmar", "mentions": 1}, "type": "Feature"}, {"geometry": {"coordinates": [9.941163000000001, 57.035498, 0], "type": "Point"}, "properties": {"city_name": "Aalborg", "mentions": 13}, "type": "Feature"}, {"geometry": {"coordinates": [6.683333, 58.283333, 0], "type": "Point"}, "properties": {"city_name": "Flekkefjord", "mentions": 4}, "type": "Feature"}, {"geometry": {"coordinates": [7.689686999999999, 51.537945, 0], "type": "Point"}, "properties": {"city_name": "Unna", "mentions": 1}, "type": "Feature"}, {"geometry": {"coordinates": [10.658433, 55.450483999999996, 0], "type": "Point"}, "properties": {"city_name": "Kerteminde", "mentions": 1}, "type": "Feature"}, {"geometry": {"coordinates": [9.515814, 56.803808999999994, 0], "type": "Point"}, "properties": {"city_name": "Aars", "mentions": 51}, "type": "Feature"}, {"geometry": {"coordinates": [9.040245, 56.563814, 0], "type": "Point"}, "properties": {"city_name": "Skive", "mentions": 1}, "type": "Feature"}, {"geometry": {"coordinates": [7.456430999999999, 53.233724, 0], "type": "Point"}, "properties": {"city_name": "Leer", "mentions": 4}, "type": "Feature"}, {"geometry": {"coordinates": [11.354142, 55.402719, 0], "type": "Point"}, "properties": {"city_name": "Slagelse", "mentions": 19}, "type": "Feature"}, {"geometry": {"coordinates": [12.551172, 52.410928000000006, 0], "type": "Point"}, "properties": {"city_name": "Brandenburg", "mentions": 9}, "type": "Feature"}, {"geometry": {"coordinates": [10.526726, 52.265939, 0], "type": "Point"}, "properties": {"city_name": "Braunschweig", "mentions": 1}, "type": "Feature"}, {"geometry": {"coordinates": [12.515245, 55.909781, 0], "type": "Point"}, "properties": {"city_name": "Kokkedal", "mentions": 1}, "type": "Feature"}, {"geometry": {"coordinates": [12.833333, 55.86666700000001, 0], "type": "Point"}, "properties": {"city_name": "Landskrona", "mentions": 11}, "type": "Feature"}, {"geometry": {"coordinates": [9.517306, 53.92516, 0], "type": "Point"}, "properties": {"city_name": "Itzehoe", "mentions": 1}, "type": "Feature"}, {"geometry": {"coordinates": [11.452859, 53.893145, 0], "type": "Point"}, "properties": {"city_name": "Wismar", "mentions": 3}, "type": "Feature"}, {"geometry": {"coordinates": [9.931704, 56.031296, 0], "type": "Point"}, "properties": {"city_name": "Skanderborg", "mentions": 25}, "type": "Feature"}, {"geometry": {"coordinates": [13.816667, 55.416667000000004, 0], "type": "Point"}, "properties": {"city_name": "Ystad", "mentions": 1}, "type": "Feature"}, {"geometry": {"coordinates": [12.648947999999999, 55.635239, 0], "type": "Point"}, "properties": {"city_name": "Kastrup", "mentions": 1}, "type": "Feature"}, {"geometry": {"coordinates": [12.7, 67.666667, 0], "type": "Point"}, "properties": {"city_name": "Sørland", "mentions": 1}, "type": "Feature"}, {"geometry": {"coordinates": [9.6, 59.2, 0], "type": "Point"}, "properties": {"city_name": "Skien", "mentions": 8}, "type": "Feature"}, {"geometry": {"coordinates": [10.225530000000001, 56.153423, 0], "type": "Point"}, "properties": {"city_name": "Aarhus", "mentions": 40}, "type": "Feature"}, {"geometry": {"coordinates": [12.183415, 55.460007999999995, 0], "type": "Point"}, "properties": {"city_name": "Køge", "mentions": 10}, "type": "Feature"}, {"geometry": {"coordinates": [9.484645, 51.313782, 0], "type": "Point"}, "properties": {"city_name": "Kassel", "mentions": 1}, "type": "Feature"}, {"geometry": {"coordinates": [11.916667, 58.916667000000004, 0], "type": "Point"}, "properties": {"city_name": "Ed", "mentions": 7}, "type": "Feature"}, {"geometry": {"coordinates": [5.46663, 60.18346, 0], "type": "Point"}, "properties": {"city_name": "Os", "mentions": 5}, "type": "Feature"}, {"geometry": {"coordinates": [10.036389999999999, 56.46070400000001, 0], "type": "Point"}, "properties": {"city_name": "Randers", "mentions": 4}, "type": "Feature"}, {"geometry": {"coordinates": [12.855556, 56.671389000000005, 0], "type": "Point"}, "properties": {"city_name": "Halmstad", "mentions": 5}, "type": "Feature"}, {"geometry": {"coordinates": [8.249322, 50.082582, 0], "type": "Point"}, "properties": {"city_name": "Wiesbaden", "mentions": 1}, "type": "Feature"}, {"geometry": {"coordinates": [6.64094, 50.954875, 0], "type": "Point"}, "properties": {"city_name": "Bergheim", "mentions": 1}, "type": "Feature"}, {"geometry": {"coordinates": [9.761693, 55.575781000000006, 0], "type": "Point"}, "properties": {"city_name": "Fredericia", "mentions": 5}, "type": "Feature"}, {"geometry": {"coordinates": [11.918332000000001, 50.31622, 0], "type": "Point"}, "properties": {"city_name": "Hof", "mentions": 7}, "type": "Feature"}, {"geometry": {"coordinates": [7.85, 58.6, 0], "type": "Point"}, "properties": {"city_name": "Evje", "mentions": 1}, "type": "Feature"}, {"geometry": {"coordinates": [5.75, 58.966667, 0], "type": "Point"}, "properties": {"city_name": "Stavanger", "mentions": 5}, "type": "Feature"}, {"geometry": {"coordinates": [10.803394, 55.305845999999995, 0], "type": "Point"}, "properties": {"city_name": "Nyborg", "mentions": 18}, "type": "Feature"}, {"geometry": {"coordinates": [7.207775999999999, 53.367454, 0], "type": "Point"}, "properties": {"city_name": "Emden", "mentions": 3}, "type": "Feature"}, {"geometry": {"coordinates": [51.299807, 70.502115, 0], "type": "Point"}, "properties": {"city_name": "Sundet", "mentions": 19}, "type": "Feature"}, {"geometry": {"coordinates": [10.790845, 53.694697999999995, 0], "type": "Point"}, "properties": {"city_name": "Ratzeburg", "mentions": 1}, "type": "Feature"}, {"geometry": {"coordinates": [8.928611, 58.624444, 0], "type": "Point"}, "properties": {"city_name": "Tvedestrand", "mentions": 1}, "type": "Feature"}, {"geometry": {"coordinates": [9.476291999999999, 53.593368999999996, 0], "type": "Point"}, "properties": {"city_name": "Stade", "mentions": 10}, "type": "Feature"}, {"geometry": {"coordinates": [6.27883, 59.48234, 0], "type": "Point"}, "properties": {"city_name": "Sand", "mentions": 1}, "type": "Feature"}, {"geometry": {"coordinates": [64.83479920000002, 17.7245968, 0], "type": "Point"}, "properties": {"city_name": "St. Croix", "mentions": 1}, "type": "Feature"}, {"geometry": {"coordinates": [10.135525999999999, 54.312144999999994, 0], "type": "Point"}, "properties": {"city_name": "Kiel", "mentions": 11}, "type": "Feature"}, {"geometry": {"coordinates": [8.248683999999999, 56.08642, 0], "type": "Point"}, "properties": {"city_name": "Ringkøbing", "mentions": 1}, "type": "Feature"}, {"geometry": {"coordinates": [10.418056, 59.285833, 0], "type": "Point"}, "properties": {"city_name": "Tønsberg", "mentions": 2}, "type": "Feature"}, {"geometry": {"coordinates": [88.33850529999997, 22.748331, 0], "type": "Point"}, "properties": {"city_name": "Serampore", "mentions": 1}, "type": "Feature"}, {"geometry": {"coordinates": [11.716903, 55.713537, 0], "type": "Point"}, "properties": {"city_name": "Holbæk", "mentions": 1}, "type": "Feature"}, {"geometry": {"coordinates": [9.417999, 55.03621700000001, 0], "type": "Point"}, "properties": {"city_name": "Aabenraa", "mentions": 14}, "type": "Feature"}, {"geometry": {"coordinates": [12.249199, 55.596631, 0], "type": "Point"}, "properties": {"city_name": "Greve", "mentions": 3}, "type": "Feature"}, {"geometry": {"coordinates": [64.72809519999998, 18.3368114, 0], "type": "Point"}, "properties": {"city_name": "St. Jan", "mentions": 2}, "type": "Feature"}, {"geometry": {"coordinates": [11.784213000000001, 55.224897999999996, 0], "type": "Point"}, "properties": {"city_name": "Næstved", "mentions": 9}, "type": "Feature"}, {"geometry": {"coordinates": [12.586267, 56.029377000000004, 0], "type": "Point"}, "properties": {"city_name": "Helsingør", "mentions": 9}, "type": "Feature"}, {"geometry": {"coordinates": [11.809436999999999, 55.441120999999995, 0], "type": "Point"}, "properties": {"city_name": "Ringsted", "mentions": 22}, "type": "Feature"}, {"geometry": {"coordinates": [12.113453, 54.086813, 0], "type": "Point"}, "properties": {"city_name": "Rostock", "mentions": 3}, "type": "Feature"}, {"geometry": {"coordinates": [12.668952, 55.594566, 0], "type": "Point"}, "properties": {"city_name": "Dragør", "mentions": 2}, "type": "Feature"}, {"geometry": {"coordinates": [9.160022999999999, 56.136747, 0], "type": "Point"}, "properties": {"city_name": "Ikast", "mentions": 1}, "type": "Feature"}, {"geometry": {"coordinates": [5.324722, 60.391110999999995, 0], "type": "Point"}, "properties": {"city_name": "Bergen", "mentions": 29}, "type": "Feature"}, {"geometry": {"coordinates": [14.639710000000001, 51.735443, 0], "type": "Point"}, "properties": {"city_name": "Forst", "mentions": 5}, "type": "Feature"}, {"geometry": {"coordinates": [8.0, 58.166667000000004, 0], "type": "Point"}, "properties": {"city_name": "Kristiansand", "mentions": 33}, "type": "Feature"}, {"geometry": {"coordinates": [10.01534, 53.575323, 0], "type": "Point"}, "properties": {"city_name": "Hamburg", "mentions": 14}, "type": "Feature"}, {"geometry": {"coordinates": [9.489315, 55.252433999999994, 0], "type": "Point"}, "properties": {"city_name": "Haderslev", "mentions": 12}, "type": "Feature"}, {"geometry": {"coordinates": [10.611257, 49.579531, 0], "type": "Point"}, "properties": {"city_name": "Neustadt", "mentions": 1}, "type": "Feature"}, {"geometry": {"coordinates": [10.75, 59.916667000000004, 0], "type": "Point"}, "properties": {"city_name": "Oslo", "mentions": 8}, "type": "Feature"}, {"geometry": {"coordinates": [12.501106, 55.88098000000001, 0], "type": "Point"}, "properties": {"city_name": "Hørsholm", "mentions": 15}, "type": "Feature"}, {"geometry": {"coordinates": [8.869335000000001, 54.943118000000005, 0], "type": "Point"}, "properties": {"city_name": "Tønder", "mentions": 9}, "type": "Feature"}, {"geometry": {"coordinates": [51.305205, 69.997781, 0], "type": "Point"}, "properties": {"city_name": "Øen", "mentions": 2}, "type": "Feature"}, {"geometry": {"coordinates": [8.696409, 56.958788, 0], "type": "Point"}, "properties": {"city_name": "Thisted", "mentions": 2}, "type": "Feature"}, {"geometry": {"coordinates": [9.959859, 57.265112, 0], "type": "Point"}, "properties": {"city_name": "Brønderslev", "mentions": 1}, "type": "Feature"}, {"geometry": {"coordinates": [9.663126, 54.306633999999995, 0], "type": "Point"}, "properties": {"city_name": "Rendsburg", "mentions": 1}, "type": "Feature"}, {"geometry": {"coordinates": [6.636628, 49.75979, 0], "type": "Point"}, "properties": {"city_name": "Trier", "mentions": 3}, "type": "Feature"}, {"geometry": {"coordinates": [18.298582, 57.639617, 0], "type": "Point"}, "properties": {"city_name": "Visby", "mentions": 3}, "type": "Feature"}, {"geometry": {"coordinates": [8.48073, 55.62157, 0], "type": "Point"}, "properties": {"city_name": "Varde", "mentions": 1}, "type": "Feature"}, {"geometry": {"coordinates": [7.45, 58.033333, 0], "type": "Point"}, "properties": {"city_name": "Mandal", "mentions": 7}, "type": "Feature"}, {"geometry": {"coordinates": [9.137948, 55.48117, 0], "type": "Point"}, "properties": {"city_name": "Vejen", "mentions": 18}, "type": "Feature"}, {"geometry": {"coordinates": [11.502436999999999, 54.775197999999996, 0], "type": "Point"}, "properties": {"city_name": "Maribo", "mentions": 3}, "type": "Feature"}, {"geometry": {"coordinates": [13.183333, 55.7, 0], "type": "Point"}, "properties": {"city_name": "Lund", "mentions": 37}, "type": "Feature"}, {"geometry": {"coordinates": [9.873531, 55.865675, 0], "type": "Point"}, "properties": {"city_name": "Horsens", "mentions": 2}, "type": "Feature"}, {"geometry": {"coordinates": [9.542763, 55.708391000000006, 0], "type": "Point"}, "properties": {"city_name": "Vejle", "mentions": 5}, "type": "Feature"}, {"geometry": {"coordinates": [11.100425999999999, 55.681984, 0], "type": "Point"}, "properties": {"city_name": "Kalundborg", "mentions": 9}, "type": "Feature"}, {"geometry": {"coordinates": [11.560856, 55.438715, 0], "type": "Point"}, "properties": {"city_name": "Sorø", "mentions": 35}, "type": "Feature"}, {"geometry": {"coordinates": [8.566667, 60.63333299999999, 0], "type": "Point"}, "properties": {"city_name": "ål", "mentions": 1}, "type": "Feature"}, {"geometry": {"coordinates": [17.633333, 59.85, 0], "type": "Point"}, "properties": {"city_name": "Uppsala", "mentions": 1}, "type": "Feature"}, {"geometry": {"coordinates": [10.669167, 59.43666700000001, 0], "type": "Point"}, "properties": {"city_name": "Moss", "mentions": 4}, "type": "Feature"}, {"geometry": {"coordinates": [45.380375, 60.597361, 0], "type": "Point"}, "properties": {"city_name": "Sletten", "mentions": 3}, "type": "Feature"}, {"geometry": {"coordinates": [64.89409460000002, 18.3380965, 0], "type": "Point"}, "properties": {"city_name": "St. Thomas", "mentions": 20}, "type": "Feature"}, {"geometry": {"coordinates": [8.138863, 49.350089000000004, 0], "type": "Point"}, "properties": {"city_name": "Neustadt", "mentions": 1}, "type": "Feature"}, {"geometry": {"coordinates": [13.745794, 51.048562, 0], "type": "Point"}, "properties": {"city_name": "Dresden", "mentions": 2}, "type": "Feature"}, {"geometry": {"coordinates": [8.843695, 49.565583000000004, 0], "type": "Point"}, "properties": {"city_name": "Neustadt", "mentions": 1}, "type": "Feature"}, {"geometry": {"coordinates": [21.7, 65.833333, 0], "type": "Point"}, "properties": {"city_name": "Boden", "mentions": 1}, "type": "Feature"}, {"geometry": {"coordinates": [18.05, 59.333332999999996, 0], "type": "Point"}, "properties": {"city_name": "Stockholm", "mentions": 28}, "type": "Feature"}, {"geometry": {"coordinates": [9.404291, 56.452819999999996, 0], "type": "Point"}, "properties": {"city_name": "Viborg", "mentions": 26}, "type": "Feature"}, {"geometry": {"coordinates": [9.952067999999999, 52.154121999999994, 0], "type": "Point"}, "properties": {"city_name": "Hildesheim", "mentions": 2}, "type": "Feature"}, {"geometry": {"coordinates": [9.439611, 54.78431, 0], "type": "Point"}, "properties": {"city_name": "Flensburg", "mentions": 1}, "type": "Feature"}, {"geometry": {"coordinates": [79.85068150000006, 11.0290373, 0], "type": "Point"}, "properties": {"city_name": "Trankebar", "mentions": 7}, "type": "Feature"}, {"geometry": {"coordinates": [11.967112, 51.481473, 0], "type": "Point"}, "properties": {"city_name": "Halle", "mentions": 3}, "type": "Feature"}, {"geometry": {"coordinates": [10.416667, 63.416667000000004, 0], "type": "Point"}, "properties": {"city_name": "Trondheim", "mentions": 3}, "type": "Feature"}, {"geometry": {"coordinates": [8.684167, 50.115520000000004, 0], "type": "Point"}, "properties": {"city_name": "Frankfurt", "mentions": 6}, "type": "Feature"}, {"geometry": {"coordinates": [9.988917, 57.466322999999996, 0], "type": "Point"}, "properties": {"city_name": "Hjørring", "mentions": 16}, "type": "Feature"}, {"geometry": {"coordinates": [9.416667, 58.86666700000001, 0], "type": "Point"}, "properties": {"city_name": "Kragerø", "mentions": 6}, "type": "Feature"}, {"geometry": {"coordinates": [12.583333, 55.666667000000004, 0], "type": "Point"}, "properties": {"city_name": "København", "mentions": 173}, "type": "Feature"}, {"geometry": {"coordinates": [9.233333, 58.716667, 0], "type": "Point"}, "properties": {"city_name": "Risør", "mentions": 25}, "type": "Feature"}, {"geometry": {"coordinates": [6.084726, 50.774122, 0], "type": "Point"}, "properties": {"city_name": "Aachen", "mentions": 1}, "type": "Feature"}, {"geometry": {"coordinates": [7.465997, 51.514942, 0], "type": "Point"}, "properties": {"city_name": "Dortmund", "mentions": 1}, "type": "Feature"}, {"geometry": {"coordinates": [8.766667, 58.460278, 0], "type": "Point"}, "properties": {"city_name": "Arendal", "mentions": 60}, "type": "Feature"}, {"geometry": {"coordinates": [10.394935, 55.393475, 0], "type": "Point"}, "properties": {"city_name": "Odense", "mentions": 44}, "type": "Feature"}, {"geometry": {"coordinates": [11.295333, 51.472209, 0], "type": "Point"}, "properties": {"city_name": "Sangerhausen", "mentions": 2}, "type": "Feature"}, {"geometry": {"coordinates": [12.505991, 55.771784999999994, 0], "type": "Point"}, "properties": {"city_name": "Kongens Lyngby", "mentions": 1}, "type": "Feature"}, {"geometry": {"coordinates": [11.32903, 50.980301000000004, 0], "type": "Point"}, "properties": {"city_name": "Weimar", "mentions": 1}, "type": "Feature"}, {"geometry": {"coordinates": [8.826754, 53.073789, 0], "type": "Point"}, "properties": {"city_name": "Bremen", "mentions": 15}, "type": "Feature"}, {"geometry": {"coordinates": [7.578835000000001, 50.353573, 0], "type": "Point"}, "properties": {"city_name": "Koblenz", "mentions": 1}, "type": "Feature"}, {"geometry": {"coordinates": [9.234908, 52.923425, 0], "type": "Point"}, "properties": {"city_name": "Verden", "mentions": 22}, "type": "Feature"}, {"geometry": {"coordinates": [7.163792999999999, 50.145108, 0], "type": "Point"}, "properties": {"city_name": "Cochem", "mentions": 1}, "type": "Feature"}, {"geometry": {"coordinates": [12.386503999999999, 51.344190000000005, 0], "type": "Point"}, "properties": {"city_name": "Leipzig", "mentions": 3}, "type": "Feature"}, {"geometry": {"coordinates": [9.230327, 48.088291, 0], "type": "Point"}, "properties": {"city_name": "Sigmaringen", "mentions": 1}, "type": "Feature"}, {"geometry": {"coordinates": [9.468121, 55.492943999999994, 0], "type": "Point"}, "properties": {"city_name": "Kolding", "mentions": 13}, "type": "Feature"}, {"geometry": {"coordinates": [12.583333, 55.666667000000004, 0], "type": "Point"}, "properties": {"city_name": "Kjøbenhavn", "mentions": 5}, "type": "Feature"}, {"geometry": {"coordinates": [12.266099, 57.108585999999995, 0], "type": "Point"}, "properties": {"city_name": "Varberg", "mentions": 5}, "type": "Feature"}, {"geometry": {"coordinates": [8.912307, 55.754, 0], "type": "Point"}, "properties": {"city_name": "Grindsted", "mentions": 1}, "type": "Feature"}, {"geometry": {"coordinates": [10.898514, 48.371538, 0], "type": "Point"}, "properties": {"city_name": "Augsburg", "mentions": 2}, "type": "Feature"}, {"geometry": {"coordinates": [11.589901, 50.928782, 0], "type": "Point"}, "properties": {"city_name": "Jena", "mentions": 1}, "type": "Feature"}, {"geometry": {"coordinates": [9.792843, 54.910633999999995, 0], "type": "Point"}, "properties": {"city_name": "Sønderborg", "mentions": 5}, "type": "Feature"}, {"geometry": {"coordinates": [11.2, 62.5, 0], "type": "Point"}, "properties": {"city_name": "Os", "mentions": 5}, "type": "Feature"}, {"geometry": {"coordinates": [7.3, 58.083332999999996, 0], "type": "Point"}, "properties": {"city_name": "Vigeland", "mentions": 1}, "type": "Feature"}, {"geometry": {"coordinates": [6.283333, 58.35, 0], "type": "Point"}, "properties": {"city_name": "Hauge", "mentions": 14}, "type": "Feature"}, {"geometry": {"coordinates": [12.08054, 55.640094, 0], "type": "Point"}, "properties": {"city_name": "Roskilde", "mentions": 57}, "type": "Feature"}, {"geometry": {"coordinates": [13.088588, 54.315822999999995, 0], "type": "Point"}, "properties": {"city_name": "Stralsund", "mentions": 1}, "type": "Feature"}, {"geometry": {"coordinates": [12.436838, 50.987632, 0], "type": "Point"}, "properties": {"city_name": "Altenburg", "mentions": 3}, "type": "Feature"}, {"geometry": {"coordinates": [18.966667, 69.666667, 0], "type": "Point"}, "properties": {"city_name": "Tromsø", "mentions": 1}, "type": "Feature"}, {"geometry": {"coordinates": [9.558598, 54.521561, 0], "type": "Point"}, "properties": {"city_name": "Schleswig", "mentions": 1}, "type": "Feature"}, {"geometry": {"coordinates": [8.214674, 53.141178000000004, 0], "type": "Point"}, "properties": {"city_name": "Oldenburg", "mentions": 9}, "type": "Feature"}, {"geometry": {"coordinates": [11.903917999999999, 55.01044, 0], "type": "Point"}, "properties": {"city_name": "Vordingborg", "mentions": 9}, "type": "Feature"}, {"geometry": {"coordinates": [13.4, 52.516667000000005, 0], "type": "Point"}, "properties": {"city_name": "Berlin", "mentions": 22}, "type": "Feature"}, {"geometry": {"coordinates": [13.033333, 56.516667000000005, 0], "type": "Point"}, "properties": {"city_name": "Laholm", "mentions": 1}, "type": "Feature"}, {"geometry": {"coordinates": [16.766667, 60.61666700000001, 0], "type": "Point"}, "properties": {"city_name": "Sandviken", "mentions": 1}, "type": "Feature"}, {"geometry": {"coordinates": [9.059913, 54.482518000000006, 0], "type": "Point"}, "properties": {"city_name": "Husum", "mentions": 2}, "type": "Feature"}, {"geometry": {"coordinates": [8.630908, 53.051103000000005, 0], "type": "Point"}, "properties": {"city_name": "Delmenhorst", "mentions": 1}, "type": "Feature"}, {"geometry": {"coordinates": [16.9945, 68.52619, 0], "type": "Point"}, "properties": {"city_name": "Bogen", "mentions": 53}, "type": "Feature"}, {"geometry": {"coordinates": [12.116667, 67.516667, 0], "type": "Point"}, "properties": {"city_name": "Røst", "mentions": 1}, "type": "Feature"}, {"geometry": {"coordinates": [8.620799, 56.359471, 0], "type": "Point"}, "properties": {"city_name": "Holstebro", "mentions": 1}, "type": "Feature"}, {"geometry": {"coordinates": [12.021482, 55.967670999999996, 0], "type": "Point"}, "properties": {"city_name": "Frederiksværk", "mentions": 1}, "type": "Feature"}, {"geometry": {"coordinates": [8.588611, 58.34055600000001, 0], "type": "Point"}, "properties": {"city_name": "Grimstad", "mentions": 11}, "type": "Feature"}], "type": "FeatureCollection"}