{"features": [{"geometry": {"coordinates": [10.204374900000001, 59.743674899999995, 0], "type": "Point"}, "properties": {"city_name": "Drammen", "mentions": 1}, "type": "Feature"}, {"geometry": {"coordinates": [15.2196575, 37.236936299999996, 0], "type": "Point"}, "properties": {"city_name": "Augusta", "mentions": 13}, "type": "Feature"}, {"geometry": {"coordinates": [7.9957332999999995, 58.14615, 0], "type": "Point"}, "properties": {"city_name": "Kristiansand", "mentions": 1}, "type": "Feature"}, {"geometry": {"coordinates": [-1.4790341, 43.090916, 0], "type": "Point"}, "properties": {"city_name": "Alba", "mentions": 4}, "type": "Feature"}, {"geometry": {"coordinates": [-2.633723, 43.1368583, 0], "type": "Point"}, "properties": {"city_name": "Santiago", "mentions": 1}, "type": "Feature"}, {"geometry": {"coordinates": [-5.995317099999999, 37.388630299999996, 0], "type": "Point"}, "properties": {"city_name": "Sevilla", "mentions": 2}, "type": "Feature"}, {"geometry": {"coordinates": [10.992412199999999, 45.4384958, 0], "type": "Point"}, "properties": {"city_name": "Verona", "mentions": 1}, "type": "Feature"}, {"geometry": {"coordinates": [5.3258117, 60.3943034, 0], "type": "Point"}, "properties": {"city_name": "Bergen", "mentions": 17}, "type": "Feature"}, {"geometry": {"coordinates": [-5.5682413, 42.5989995, 0], "type": "Point"}, "properties": {"city_name": "Leon", "mentions": 9}, "type": "Feature"}, {"geometry": {"coordinates": [12.103943800000001, 42.4164974, 0], "type": "Point"}, "properties": {"city_name": "Viterbo", "mentions": 7}, "type": "Feature"}, {"geometry": {"coordinates": [10.3852104, 55.399722499999996, 0], "type": "Point"}, "properties": {"city_name": "Odense", "mentions": 67}, "type": "Feature"}, {"geometry": {"coordinates": [-1.4906872, 38.0418669, 0], "type": "Point"}, "properties": {"city_name": "Mula", "mentions": 1}, "type": "Feature"}, {"geometry": {"coordinates": [-0.3394758, 53.74357220000001, 0], "type": "Point"}, "properties": {"city_name": "Hull", "mentions": 6}, "type": "Feature"}, {"geometry": {"coordinates": [9.9193939, 57.0482206, 0], "type": "Point"}, "properties": {"city_name": "Aalborg", "mentions": 26}, "type": "Feature"}, {"geometry": {"coordinates": [7.4652789, 51.5142273, 0], "type": "Point"}, "properties": {"city_name": "Dortmund", "mentions": 6}, "type": "Feature"}, {"geometry": {"coordinates": [1.0802533, 51.2800275, 0], "type": "Point"}, "properties": {"city_name": "Canterbury", "mentions": 1}, "type": "Feature"}, {"geometry": {"coordinates": [10.523606599999999, 52.26465770000001, 0], "type": "Point"}, "properties": {"city_name": "Braunschweig", "mentions": 9}, "type": "Feature"}, {"geometry": {"coordinates": [16.460756, 43.514802, 0], "type": "Point"}, "properties": {"city_name": "Split", "mentions": 2}, "type": "Feature"}, {"geometry": {"coordinates": [11.1519933, 51.785542799999995, 0], "type": "Point"}, "properties": {"city_name": "Quedlinburg", "mentions": 2}, "type": "Feature"}, {"geometry": {"coordinates": [10.6945265, 50.9462725, 0], "type": "Point"}, "properties": {"city_name": "Gotha", "mentions": 1}, "type": "Feature"}, {"geometry": {"coordinates": [2.398932, 47.0805693, 0], "type": "Point"}, "properties": {"city_name": "Bourges", "mentions": 1}, "type": "Feature"}, {"geometry": {"coordinates": [12.4853384, 41.894802, 0], "type": "Point"}, "properties": {"city_name": "Roma", "mentions": 13}, "type": "Feature"}, {"geometry": {"coordinates": [3.4772986000000006, 43.3134386, 0], "type": "Point"}, "properties": {"city_name": "Agde", "mentions": 1}, "type": "Feature"}, {"geometry": {"coordinates": [-1.5758538999999998, 54.7764152, 0], "type": "Point"}, "properties": {"city_name": "Durham", "mentions": 1}, "type": "Feature"}, {"geometry": {"coordinates": [2.4838829, 46.300075299999996, 0], "type": "Point"}, "properties": {"city_name": "Aire", "mentions": 1}, "type": "Feature"}, {"geometry": {"coordinates": [11.331653300000001, 43.3185536, 0], "type": "Point"}, "properties": {"city_name": "Siena", "mentions": 2}, "type": "Feature"}, {"geometry": {"coordinates": [-4.370238099999999, 37.32526420000001, 0], "type": "Point"}, "properties": {"city_name": "Rute", "mentions": 2}, "type": "Feature"}, {"geometry": {"coordinates": [12.3747329, 51.3406321, 0], "type": "Point"}, "properties": {"city_name": "Leipzig", "mentions": 7}, "type": "Feature"}, {"geometry": {"coordinates": [-6.3599595, 36.6228636, 0], "type": "Point"}, "properties": {"city_name": "Rota", "mentions": 29}, "type": "Feature"}, {"geometry": {"coordinates": [9.738553199999998, 52.374477899999995, 0], "type": "Point"}, "properties": {"city_name": "Hannover", "mentions": 19}, "type": "Feature"}, {"geometry": {"coordinates": [11.3290855, 50.980281299999994, 0], "type": "Point"}, "properties": {"city_name": "Weimar", "mentions": 5}, "type": "Feature"}, {"geometry": {"coordinates": [7.5878261, 47.55810770000001, 0], "type": "Point"}, "properties": {"city_name": "Basel", "mentions": 3}, "type": "Feature"}, {"geometry": {"coordinates": [-0.19991289999999998, 48.896474100000006, 0], "type": "Point"}, "properties": {"city_name": "Falaise", "mentions": 1}, "type": "Feature"}, {"geometry": {"coordinates": [41.713809999999995, 54.025643, 0], "type": "Point"}, "properties": {"city_name": "Sack", "mentions": 1}, "type": "Feature"}, {"geometry": {"coordinates": [9.5653284, 54.51851, 0], "type": "Point"}, "properties": {"city_name": "Schleswig", "mentions": 7}, "type": "Feature"}, {"geometry": {"coordinates": [5.2408138, 50.518085600000006, 0], "type": "Point"}, "properties": {"city_name": "Huy", "mentions": 1}, "type": "Feature"}, {"geometry": {"coordinates": [3.0706414, 50.630508899999995, 0], "type": "Point"}, "properties": {"city_name": "Lille", "mentions": 8}, "type": "Feature"}, {"geometry": {"coordinates": [6.146601400000001, 46.2017559, 0], "type": "Point"}, "properties": {"city_name": "Geneve", "mentions": 1}, "type": "Feature"}, {"geometry": {"coordinates": [5.3699525, 43.2961743, 0], "type": "Point"}, "properties": {"city_name": "Marseille", "mentions": 1}, "type": "Feature"}, {"geometry": {"coordinates": [13.2461296, 52.84554920000001, 0], "type": "Point"}, "properties": {"city_name": "Brandenburg", "mentions": 27}, "type": "Feature"}, {"geometry": {"coordinates": [10.037147599999999, 56.461754500000005, 0], "type": "Point"}, "properties": {"city_name": "Randers", "mentions": 30}, "type": "Feature"}, {"geometry": {"coordinates": [16.366238199999998, 56.6628826, 0], "type": "Point"}, "properties": {"city_name": "Kalmar", "mentions": 26}, "type": "Feature"}, {"geometry": {"coordinates": [-3.1902352, 55.9496416, 0], "type": "Point"}, "properties": {"city_name": "Edinburgh", "mentions": 1}, "type": "Feature"}, {"geometry": {"coordinates": [17.4705293, 47.326108700000006, 0], "type": "Point"}, "properties": {"city_name": "Papa", "mentions": 1}, "type": "Feature"}, {"geometry": {"coordinates": [11.4148038, 53.628829700000004, 0], "type": "Point"}, "properties": {"city_name": "Schwerin", "mentions": 1}, "type": "Feature"}, {"geometry": {"coordinates": [4.351697, 50.8465573, 0], "type": "Point"}, "properties": {"city_name": "Bruxelles", "mentions": 1}, "type": "Feature"}, {"geometry": {"coordinates": [56.026233999999995, 54.469425, 0], "type": "Point"}, "properties": {"city_name": "Balta", "mentions": 18}, "type": "Feature"}, {"geometry": {"coordinates": [-3.6021928, 37.183054, 0], "type": "Point"}, "properties": {"city_name": "Granada", "mentions": 2}, "type": "Feature"}, {"geometry": {"coordinates": [8.775774199999999, 50.81173270000001, 0], "type": "Point"}, "properties": {"city_name": "Marburg", "mentions": 1}, "type": "Feature"}, {"geometry": {"coordinates": [12.7363357, 42.735512400000005, 0], "type": "Point"}, "properties": {"city_name": "Spoleto", "mentions": 1}, "type": "Feature"}, {"geometry": {"coordinates": [4.8059012, 43.9492493, 0], "type": "Point"}, "properties": {"city_name": "Avignon", "mentions": 2}, "type": "Feature"}, {"geometry": {"coordinates": [-1.0815361000000001, 53.959055500000005, 0], "type": "Point"}, "properties": {"city_name": "York", "mentions": 1}, "type": "Feature"}, {"geometry": {"coordinates": [13.470493900000001, 51.163087100000006, 0], "type": "Point"}, "properties": {"city_name": "Meissen", "mentions": 2}, "type": "Feature"}, {"geometry": {"coordinates": [9.9193939, 57.0482206, 0], "type": "Point"}, "properties": {"city_name": "Ålborg", "mentions": 4}, "type": "Feature"}, {"geometry": {"coordinates": [-2.5972985, 51.453802200000005, 0], "type": "Point"}, "properties": {"city_name": "Bristol", "mentions": 1}, "type": "Feature"}, {"geometry": {"coordinates": [8.288627799999999, 51.4387667, 0], "type": "Point"}, "properties": {"city_name": "Halle", "mentions": 6}, "type": "Feature"}, {"geometry": {"coordinates": [11.464793199999999, 53.89098320000001, 0], "type": "Point"}, "properties": {"city_name": "Wismar", "mentions": 12}, "type": "Feature"}, {"geometry": {"coordinates": [7.7270296, 51.0946826, 0], "type": "Point"}, "properties": {"city_name": "Hardenberg", "mentions": 4}, "type": "Feature"}, {"geometry": {"coordinates": [10.7389701, 59.913330099999996, 0], "type": "Point"}, "properties": {"city_name": "Oslo", "mentions": 1}, "type": "Feature"}, {"geometry": {"coordinates": [2.8319805000000002, 50.4291723, 0], "type": "Point"}, "properties": {"city_name": "Lens", "mentions": 187}, "type": "Feature"}, {"geometry": {"coordinates": [26.9281768, 46.924875799999995, 0], "type": "Point"}, "properties": {"city_name": "Roman", "mentions": 9}, "type": "Feature"}, {"geometry": {"coordinates": [4.264729099999999, 39.8894325, 0], "type": "Point"}, "properties": {"city_name": "Mahon", "mentions": 2}, "type": "Feature"}, {"geometry": {"coordinates": [4.4811088666204295, 52.1518157, 0], "type": "Point"}, "properties": {"city_name": "Leiden", "mentions": 2}, "type": "Feature"}, {"geometry": {"coordinates": [-3.4708163, 37.9945171, 0], "type": "Point"}, "properties": {"city_name": "Baeza", "mentions": 1}, "type": "Feature"}, {"geometry": {"coordinates": [9.9513046, 52.1521636, 0], "type": "Point"}, "properties": {"city_name": "Hildesheim", "mentions": 4}, "type": "Feature"}, {"geometry": {"coordinates": [11.125760099999999, 46.0664228, 0], "type": "Point"}, "properties": {"city_name": "Trento", "mentions": 3}, "type": "Feature"}, {"geometry": {"coordinates": [9.6947461, 45.0534751, 0], "type": "Point"}, "properties": {"city_name": "Piacenza", "mentions": 2}, "type": "Feature"}, {"geometry": {"coordinates": [10.2134046, 56.14962779999999, 0], "type": "Point"}, "properties": {"city_name": "Aarhus", "mentions": 22}, "type": "Feature"}, {"geometry": {"coordinates": [12.5700724, 55.6867243, 0], "type": "Point"}, "properties": {"city_name": "Kjøbenhavn", "mentions": 195}, "type": "Feature"}, {"geometry": {"coordinates": [8.540868, 52.010877, 0], "type": "Point"}, "properties": {"city_name": "Bielefeld", "mentions": 8}, "type": "Feature"}, {"geometry": {"coordinates": [10.5722288, 49.3028611, 0], "type": "Point"}, "properties": {"city_name": "Ansbach", "mentions": 5}, "type": "Feature"}, {"geometry": {"coordinates": [25.9542057, 43.84804129999999, 0], "type": "Point"}, "properties": {"city_name": "Ruse", "mentions": 1}, "type": "Feature"}, {"geometry": {"coordinates": [10.8986971, 48.3668041, 0], "type": "Point"}, "properties": {"city_name": "Augsburg", "mentions": 5}, "type": "Feature"}, {"geometry": {"coordinates": [-1.57554410903806, 49.51271975, 0], "type": "Point"}, "properties": {"city_name": "Cherbourg", "mentions": 1}, "type": "Feature"}, {"geometry": {"coordinates": [3.2988089, 48.5602959, 0], "type": "Point"}, "properties": {"city_name": "Provins", "mentions": 83}, "type": "Feature"}, {"geometry": {"coordinates": [3.0042120999999997, 43.1837661, 0], "type": "Point"}, "properties": {"city_name": "Narbonne", "mentions": 1}, "type": "Feature"}, {"geometry": {"coordinates": [8.214601700000001, 53.138975300000006, 0], "type": "Point"}, "properties": {"city_name": "Oldenburg", "mentions": 15}, "type": "Feature"}, {"geometry": {"coordinates": [12.1286127, 54.09244449999999, 0], "type": "Point"}, "properties": {"city_name": "Rostock", "mentions": 9}, "type": "Feature"}, {"geometry": {"coordinates": [1.0939658, 49.4404591, 0], "type": "Point"}, "properties": {"city_name": "Rouen", "mentions": 2}, "type": "Feature"}, {"geometry": {"coordinates": [3.6959771, 43.4014434, 0], "type": "Point"}, "properties": {"city_name": "Sete", "mentions": 1}, "type": "Feature"}, {"geometry": {"coordinates": [12.2455414, 45.6658505, 0], "type": "Point"}, "properties": {"city_name": "Treviso", "mentions": 1}, "type": "Feature"}, {"geometry": {"coordinates": [10.2134046, 56.14962779999999, 0], "type": "Point"}, "properties": {"city_name": "Århus", "mentions": 10}, "type": "Feature"}, {"geometry": {"coordinates": [0.48753100000000005, 44.8534568, 0], "type": "Point"}, "properties": {"city_name": "Bergerac", "mentions": 1}, "type": "Feature"}, {"geometry": {"coordinates": [9.4059354, 56.4469128, 0], "type": "Point"}, "properties": {"city_name": "Viborg", "mentions": 90}, "type": "Feature"}, {"geometry": {"coordinates": [8.3603088, 49.6352685, 0], "type": "Point"}, "properties": {"city_name": "Worms", "mentions": 2}, "type": "Feature"}, {"geometry": {"coordinates": [8.8071646, 53.0758196, 0], "type": "Point"}, "properties": {"city_name": "Bremen", "mentions": 125}, "type": "Feature"}, {"geometry": {"coordinates": [-6.834213900000001, 38.627396000000005, 0], "type": "Point"}, "properties": {"city_name": "Gibraltar", "mentions": 1}, "type": "Feature"}, {"geometry": {"coordinates": [21.905737, 43.322489000000004, 0], "type": "Point"}, "properties": {"city_name": "Nis", "mentions": 3}, "type": "Feature"}, {"geometry": {"coordinates": [8.498612300000001, 40.2970061, 0], "type": "Point"}, "properties": {"city_name": "Bosa", "mentions": 3}, "type": "Feature"}, {"geometry": {"coordinates": [9.1904984, 45.4667971, 0], "type": "Point"}, "properties": {"city_name": "Milano", "mentions": 15}, "type": "Feature"}, {"geometry": {"coordinates": [-0.023983599999999997, 52.97704079999999, 0], "type": "Point"}, "properties": {"city_name": "Boston", "mentions": 1}, "type": "Feature"}, {"geometry": {"coordinates": [-1.5959212999999999, 48.8376284, 0], "type": "Point"}, "properties": {"city_name": "Granville", "mentions": 1}, "type": "Feature"}, {"geometry": {"coordinates": [11.8734455, 45.4077172, 0], "type": "Point"}, "properties": {"city_name": "Padova", "mentions": 1}, "type": "Feature"}, {"geometry": {"coordinates": [12.434098800000001, 50.9852411, 0], "type": "Point"}, "properties": {"city_name": "Altenburg", "mentions": 1}, "type": "Feature"}, {"geometry": {"coordinates": [4.2374349, 50.7360524, 0], "type": "Point"}, "properties": {"city_name": "Halle", "mentions": 6}, "type": "Feature"}, {"geometry": {"coordinates": [-4.776013099999999, 37.884977899999996, 0], "type": "Point"}, "properties": {"city_name": "Cordoba", "mentions": 1}, "type": "Feature"}, {"geometry": {"coordinates": [2.6500745, 39.569581799999995, 0], "type": "Point"}, "properties": {"city_name": "Palma", "mentions": 1}, "type": "Feature"}, {"geometry": {"coordinates": [-4.0239568, 39.8560679, 0], "type": "Point"}, "properties": {"city_name": "Toledo", "mentions": 1}, "type": "Feature"}, {"geometry": {"coordinates": [13.388859900000002, 52.517036499999996, 0], "type": "Point"}, "properties": {"city_name": "Berlin", "mentions": 26}, "type": "Feature"}, {"geometry": {"coordinates": [9.503263, 45.3138959, 0], "type": "Point"}, "properties": {"city_name": "Lodi", "mentions": 2}, "type": "Feature"}, {"geometry": {"coordinates": [0.1235817, 52.2034823, 0], "type": "Point"}, "properties": {"city_name": "Cambridge", "mentions": 1}, "type": "Feature"}, {"geometry": {"coordinates": [3.7769485, 50.6311349, 0], "type": "Point"}, "properties": {"city_name": "Ath", "mentions": 2}, "type": "Feature"}, {"geometry": {"coordinates": [16.372504199999998, 48.2083537, 0], "type": "Point"}, "properties": {"city_name": "Wien", "mentions": 6}, "type": "Feature"}, {"geometry": {"coordinates": [12.081924699999998, 55.6433478, 0], "type": "Point"}, "properties": {"city_name": "Roskilde", "mentions": 178}, "type": "Feature"}, {"geometry": {"coordinates": [5.4304381741379295, 51.89242535, 0], "type": "Point"}, "properties": {"city_name": "Tiel", "mentions": 1}, "type": "Feature"}, {"geometry": {"coordinates": [-1.2578499, 51.7520131, 0], "type": "Point"}, "properties": {"city_name": "Oxford", "mentions": 3}, "type": "Feature"}, {"geometry": {"coordinates": [11.659796, 45.2240069, 0], "type": "Point"}, "properties": {"city_name": "Este", "mentions": 1}, "type": "Feature"}, {"geometry": {"coordinates": [9.90849351176038, 53.31722365, 0], "type": "Point"}, "properties": {"city_name": "Harburg", "mentions": 1}, "type": "Feature"}, {"geometry": {"coordinates": [11.343034699999999, 44.4936714, 0], "type": "Point"}, "properties": {"city_name": "Bologna", "mentions": 10}, "type": "Feature"}, {"geometry": {"coordinates": [14.806441699999999, 50.89591420000001, 0], "type": "Point"}, "properties": {"city_name": "Zittau", "mentions": 1}, "type": "Feature"}, {"geometry": {"coordinates": [40.407520299999995, 56.1288899, 0], "type": "Point"}, "properties": {"city_name": "Vladimir", "mentions": 2}, "type": "Feature"}, {"geometry": {"coordinates": [7.011429, 51.457087, 0], "type": "Point"}, "properties": {"city_name": "Essen", "mentions": 4}, "type": "Feature"}, {"geometry": {"coordinates": [10.2204897, 45.539939200000006, 0], "type": "Point"}, "properties": {"city_name": "Brescia", "mentions": 2}, "type": "Feature"}, {"geometry": {"coordinates": [5.12768031549829, 52.08095165, 0], "type": "Point"}, "properties": {"city_name": "Utrecht", "mentions": 7}, "type": "Feature"}, {"geometry": {"coordinates": [13.046480599999999, 47.798134600000004, 0], "type": "Point"}, "properties": {"city_name": "Salzburg", "mentions": 1}, "type": "Feature"}, {"geometry": {"coordinates": [9.0538156, 54.485363799999995, 0], "type": "Point"}, "properties": {"city_name": "Husum", "mentions": 4}, "type": "Feature"}, {"geometry": {"coordinates": [11.066106300000001, 44.8872071, 0], "type": "Point"}, "properties": {"city_name": "Mirandola", "mentions": 1}, "type": "Feature"}, {"geometry": {"coordinates": [-2.9805392000000004, 53.4054719, 0], "type": "Point"}, "properties": {"city_name": "Liverpool", "mentions": 1}, "type": "Feature"}, {"geometry": {"coordinates": [8.764869778177559, 51.71895955, 0], "type": "Point"}, "properties": {"city_name": "Paderborn", "mentions": 1}, "type": "Feature"}, {"geometry": {"coordinates": [29.476082, 46.830942, 0], "type": "Point"}, "properties": {"city_name": "Bender", "mentions": 1}, "type": "Feature"}, {"geometry": {"coordinates": [13.0904622, 54.3159851, 0], "type": "Point"}, "properties": {"city_name": "Stralsund", "mentions": 18}, "type": "Feature"}, {"geometry": {"coordinates": [0.1967379, 48.00734979999999, 0], "type": "Point"}, "properties": {"city_name": "Le Mans", "mentions": 1}, "type": "Feature"}, {"geometry": {"coordinates": [26.726972999999997, 58.369766000000006, 0], "type": "Point"}, "properties": {"city_name": "Tartu", "mentions": 1}, "type": "Feature"}, {"geometry": {"coordinates": [8.025636, 44.691542, 0], "type": "Point"}, "properties": {"city_name": "Alba", "mentions": 4}, "type": "Feature"}, {"geometry": {"coordinates": [10.081052, 52.624056, 0], "type": "Point"}, "properties": {"city_name": "Celle", "mentions": 2}, "type": "Feature"}, {"geometry": {"coordinates": [11.6399609, 52.1315889, 0], "type": "Point"}, "properties": {"city_name": "Magdeburg", "mentions": 3}, "type": "Feature"}, {"geometry": {"coordinates": [1.4881434, 48.4438601, 0], "type": "Point"}, "properties": {"city_name": "Chartres", "mentions": 1}, "type": "Feature"}, {"geometry": {"coordinates": [6.0820018, 44.561197799999995, 0], "type": "Point"}, "properties": {"city_name": "Gap", "mentions": 10}, "type": "Feature"}, {"geometry": {"coordinates": [3.9519580000000003, 50.4549568, 0], "type": "Point"}, "properties": {"city_name": "Mons", "mentions": 14}, "type": "Feature"}, {"geometry": {"coordinates": [-1.3131692, 51.0612766, 0], "type": "Point"}, "properties": {"city_name": "Winchester", "mentions": 1}, "type": "Feature"}, {"geometry": {"coordinates": [12.3345898, 45.437190799999996, 0], "type": "Point"}, "properties": {"city_name": "Venezia", "mentions": 4}, "type": "Feature"}, {"geometry": {"coordinates": [6.568007700000001, 53.2190652, 0], "type": "Point"}, "properties": {"city_name": "Groningen", "mentions": 2}, "type": "Feature"}, {"geometry": {"coordinates": [12.6136135, 56.0345277, 0], "type": "Point"}, "properties": {"city_name": "Helsingør", "mentions": 41}, "type": "Feature"}, {"geometry": {"coordinates": [13.381523800000002, 54.095791000000006, 0], "type": "Point"}, "properties": {"city_name": "Greifswald", "mentions": 2}, "type": "Feature"}, {"geometry": {"coordinates": [8.276251299999998, 50.0012314, 0], "type": "Point"}, "properties": {"city_name": "Mainz", "mentions": 3}, "type": "Feature"}, {"geometry": {"coordinates": [9.67086007564374, 59.59455005, 0], "type": "Point"}, "properties": {"city_name": "Kongsberg", "mentions": 2}, "type": "Feature"}, {"geometry": {"coordinates": [3.7250121, 51.0538286, 0], "type": "Point"}, "properties": {"city_name": "Gent", "mentions": 15}, "type": "Feature"}, {"geometry": {"coordinates": [12.5700724, 55.6867243, 0], "type": "Point"}, "properties": {"city_name": "København", "mentions": 247}, "type": "Feature"}, {"geometry": {"coordinates": [17.299948, 40.9522369, 0], "type": "Point"}, "properties": {"city_name": "Monopoli", "mentions": 1}, "type": "Feature"}, {"geometry": {"coordinates": [0.5850506999999999, 43.646355799999995, 0], "type": "Point"}, "properties": {"city_name": "Auch", "mentions": 1}, "type": "Feature"}, {"geometry": {"coordinates": [14.5722829, 40.7376592, 0], "type": "Point"}, "properties": {"city_name": "Angri", "mentions": 9}, "type": "Feature"}, {"geometry": {"coordinates": [4.8320114, 45.75781370000001, 0], "type": "Point"}, "properties": {"city_name": "Lyon", "mentions": 1}, "type": "Feature"}, {"geometry": {"coordinates": [30.983424, 52.421484, 0], "type": "Point"}, "properties": {"city_name": "Gomel", "mentions": 1}, "type": "Feature"}, {"geometry": {"coordinates": [11.0554519, 51.892656099999996, 0], "type": "Point"}, "properties": {"city_name": "Halberstadt", "mentions": 4}, "type": "Feature"}, {"geometry": {"coordinates": [-0.36856679999999997, 43.2957547, 0], "type": "Point"}, "properties": {"city_name": "Pau", "mentions": 24}, "type": "Feature"}, {"geometry": {"coordinates": [2.1266886, 48.8035403, 0], "type": "Point"}, "properties": {"city_name": "Versailles", "mentions": 8}, "type": "Feature"}, {"geometry": {"coordinates": [15.5542082, 38.1937571, 0], "type": "Point"}, "properties": {"city_name": "Messina", "mentions": 1}, "type": "Feature"}, {"geometry": {"coordinates": [18.297982, 57.637936100000005, 0], "type": "Point"}, "properties": {"city_name": "Visby", "mentions": 6}, "type": "Feature"}, {"geometry": {"coordinates": [4.7512296784898895, 51.5644477, 0], "type": "Point"}, "properties": {"city_name": "Breda", "mentions": 7}, "type": "Feature"}, {"geometry": {"coordinates": [6.1326288, 50.048301, 0], "type": "Point"}, "properties": {"city_name": "Burg", "mentions": 6}, "type": "Feature"}, {"geometry": {"coordinates": [-0.1276474, 51.5073219, 0], "type": "Point"}, "properties": {"city_name": "London", "mentions": 31}, "type": "Feature"}, {"geometry": {"coordinates": [10.135555, 54.3227085, 0], "type": "Point"}, "properties": {"city_name": "Kiel", "mentions": 136}, "type": "Feature"}, {"geometry": {"coordinates": [9.086044000000001, 45.81082, 0], "type": "Point"}, "properties": {"city_name": "Como", "mentions": 2}, "type": "Feature"}, {"geometry": {"coordinates": [10.000653999999999, 53.550341, 0], "type": "Point"}, "properties": {"city_name": "Hamburg", "mentions": 42}, "type": "Feature"}, {"geometry": {"coordinates": [-3.7035824999999996, 40.416704700000004, 0], "type": "Point"}, "properties": {"city_name": "Madrid", "mentions": 42}, "type": "Feature"}, {"geometry": {"coordinates": [9.77766972686892, 53.58646755, 0], "type": "Point"}, "properties": {"city_name": "Altona", "mentions": 19}, "type": "Feature"}, {"geometry": {"coordinates": [10.6085739, 55.063888399999996, 0], "type": "Point"}, "properties": {"city_name": "Svendborg", "mentions": 4}, "type": "Feature"}, {"geometry": {"coordinates": [1.9086066000000002, 47.9027336, 0], "type": "Point"}, "properties": {"city_name": "Orleans", "mentions": 1}, "type": "Feature"}, {"geometry": {"coordinates": [13.614104999999999, 41.715723, 0], "type": "Point"}, "properties": {"city_name": "Sora", "mentions": 1}, "type": "Feature"}, {"geometry": {"coordinates": [12.0409384, 44.222601700000006, 0], "type": "Point"}, "properties": {"city_name": "Forli", "mentions": 34}, "type": "Feature"}, {"geometry": {"coordinates": [8.9338624, 44.40726, 0], "type": "Point"}, "properties": {"city_name": "Genova", "mentions": 1}, "type": "Feature"}, {"geometry": {"coordinates": [10.8876149, 49.8926723, 0], "type": "Point"}, "properties": {"city_name": "Bamberg", "mentions": 2}, "type": "Feature"}, {"geometry": {"coordinates": [14.2487826, 40.835933600000004, 0], "type": "Point"}, "properties": {"city_name": "Napoli", "mentions": 5}, "type": "Feature"}, {"geometry": {"coordinates": [13.7381437, 51.0493286, 0], "type": "Point"}, "properties": {"city_name": "Dresden", "mentions": 1}, "type": "Feature"}, {"geometry": {"coordinates": [8.9168852, 52.288104499999996, 0], "type": "Point"}, "properties": {"city_name": "Minden", "mentions": 1}, "type": "Feature"}, {"geometry": {"coordinates": [4.89797550561798, 52.3745403, 0], "type": "Point"}, "properties": {"city_name": "Amsterdam", "mentions": 6}, "type": "Feature"}, {"geometry": {"coordinates": [12.3890104, 43.1119613, 0], "type": "Point"}, "properties": {"city_name": "Perugia", "mentions": 1}, "type": "Feature"}, {"geometry": {"coordinates": [4.3997081, 51.2211097, 0], "type": "Point"}, "properties": {"city_name": "Antwerpen", "mentions": 1}, "type": "Feature"}, {"geometry": {"coordinates": [6.083862, 50.776351, 0], "type": "Point"}, "properties": {"city_name": "Aachen", "mentions": 11}, "type": "Feature"}, {"geometry": {"coordinates": [-2.3596963, 51.3813864, 0], "type": "Point"}, "properties": {"city_name": "Bath", "mentions": 1}, "type": "Feature"}, {"geometry": {"coordinates": [18.0710935, 59.3251172, 0], "type": "Point"}, "properties": {"city_name": "Stockholm", "mentions": 35}, "type": "Feature"}, {"geometry": {"coordinates": [-6.292567900000001, 36.5298292, 0], "type": "Point"}, "properties": {"city_name": "Cadiz", "mentions": 4}, "type": "Feature"}, {"geometry": {"coordinates": [5.0528680999999995, 45.0458886, 0], "type": "Point"}, "properties": {"city_name": "Romans", "mentions": 1}, "type": "Feature"}, {"geometry": {"coordinates": [2.3514992, 48.856610100000005, 0], "type": "Point"}, "properties": {"city_name": "Paris", "mentions": 51}, "type": "Feature"}, {"geometry": {"coordinates": [5.4263436049647105, 43.514925399999996, 0], "type": "Point"}, "properties": {"city_name": "Orange", "mentions": 1}, "type": "Feature"}, {"geometry": {"coordinates": [11.397137204221098, 47.26951525, 0], "type": "Point"}, "properties": {"city_name": "Innsbruck", "mentions": 2}, "type": "Feature"}, {"geometry": {"coordinates": [11.2555757, 43.769871200000004, 0], "type": "Point"}, "properties": {"city_name": "Firenze", "mentions": 6}, "type": "Feature"}, {"geometry": {"coordinates": [9.6645115, 54.3046701, 0], "type": "Point"}, "properties": {"city_name": "Rendsburg", "mentions": 2}, "type": "Feature"}, {"geometry": {"coordinates": [9.4624705, 51.307686700000005, 0], "type": "Point"}, "properties": {"city_name": "Kassel", "mentions": 1}, "type": "Feature"}, {"geometry": {"coordinates": [8.433615, 49.3165553, 0], "type": "Point"}, "properties": {"city_name": "Speyer", "mentions": 6}, "type": "Feature"}, {"geometry": {"coordinates": [7.10066, 50.735851000000004, 0], "type": "Point"}, "properties": {"city_name": "Bonn", "mentions": 2}, "type": "Feature"}, {"geometry": {"coordinates": [0.6176324000000001, 44.2015624, 0], "type": "Point"}, "properties": {"city_name": "Agen", "mentions": 14}, "type": "Feature"}], "type": "FeatureCollection"}