{"features": [{"geometry": {"coordinates": [10.204374900000001, 59.743674899999995, 0], "type": "Point"}, "properties": {"city_name": "Drammen", "mentions": 5}, "type": "Feature"}, {"geometry": {"coordinates": [15.2196575, 37.236936299999996, 0], "type": "Point"}, "properties": {"city_name": "Augusta", "mentions": 1}, "type": "Feature"}, {"geometry": {"coordinates": [8.94694911492874, 58.42673005, 0], "type": "Point"}, "properties": {"city_name": "Arendal", "mentions": 113}, "type": "Feature"}, {"geometry": {"coordinates": [8.2416556, 50.082038399999995, 0], "type": "Point"}, "properties": {"city_name": "Wiesbaden", "mentions": 1}, "type": "Feature"}, {"geometry": {"coordinates": [7.9957332999999995, 58.14615, 0], "type": "Point"}, "properties": {"city_name": "Kristiansand", "mentions": 77}, "type": "Feature"}, {"geometry": {"coordinates": [-1.4790341, 43.090916, 0], "type": "Point"}, "properties": {"city_name": "Alba", "mentions": 6}, "type": "Feature"}, {"geometry": {"coordinates": [3.2356613, 50.1759602, 0], "type": "Point"}, "properties": {"city_name": "Cambrai", "mentions": 1}, "type": "Feature"}, {"geometry": {"coordinates": [10.992412199999999, 45.4384958, 0], "type": "Point"}, "properties": {"city_name": "Verona", "mentions": 1}, "type": "Feature"}, {"geometry": {"coordinates": [12.0857291, 51.964030799999996, 0], "type": "Point"}, "properties": {"city_name": "Zerbst", "mentions": 1}, "type": "Feature"}, {"geometry": {"coordinates": [-5.5682413, 42.5989995, 0], "type": "Point"}, "properties": {"city_name": "Leon", "mentions": 8}, "type": "Feature"}, {"geometry": {"coordinates": [5.3258117, 60.3943034, 0], "type": "Point"}, "properties": {"city_name": "Bergen", "mentions": 74}, "type": "Feature"}, {"geometry": {"coordinates": [0.283896428437724, 52.40187065, 0], "type": "Point"}, "properties": {"city_name": "Ely", "mentions": 1}, "type": "Feature"}, {"geometry": {"coordinates": [10.3852104, 55.399722499999996, 0], "type": "Point"}, "properties": {"city_name": "Odense", "mentions": 83}, "type": "Feature"}, {"geometry": {"coordinates": [7.463146803781759, 53.2473626, 0], "type": "Point"}, "properties": {"city_name": "Leer", "mentions": 10}, "type": "Feature"}, {"geometry": {"coordinates": [-0.3394758, 53.74357220000001, 0], "type": "Point"}, "properties": {"city_name": "Hull", "mentions": 16}, "type": "Feature"}, {"geometry": {"coordinates": [3.88924980553989, 51.503114399999994, 0], "type": "Point"}, "properties": {"city_name": "Goes", "mentions": 2}, "type": "Feature"}, {"geometry": {"coordinates": [-0.5800364, 44.841225, 0], "type": "Point"}, "properties": {"city_name": "Bordeaux", "mentions": 1}, "type": "Feature"}, {"geometry": {"coordinates": [9.9193939, 57.0482206, 0], "type": "Point"}, "properties": {"city_name": "Aalborg", "mentions": 36}, "type": "Feature"}, {"geometry": {"coordinates": [7.4652789, 51.5142273, 0], "type": "Point"}, "properties": {"city_name": "Dortmund", "mentions": 1}, "type": "Feature"}, {"geometry": {"coordinates": [1.0802533, 51.2800275, 0], "type": "Point"}, "properties": {"city_name": "Canterbury", "mentions": 7}, "type": "Feature"}, {"geometry": {"coordinates": [16.460756, 43.514802, 0], "type": "Point"}, "properties": {"city_name": "Split", "mentions": 10}, "type": "Feature"}, {"geometry": {"coordinates": [6.0943765, 52.508975899999996, 0], "type": "Point"}, "properties": {"city_name": "Zwolle", "mentions": 1}, "type": "Feature"}, {"geometry": {"coordinates": [10.034072, 59.049640000000004, 0], "type": "Point"}, "properties": {"city_name": "Larvik", "mentions": 3}, "type": "Feature"}, {"geometry": {"coordinates": [11.1519933, 51.785542799999995, 0], "type": "Point"}, "properties": {"city_name": "Quedlinburg", "mentions": 1}, "type": "Feature"}, {"geometry": {"coordinates": [28.054939500000003, 45.4338215, 0], "type": "Point"}, "properties": {"city_name": "Galati", "mentions": 1}, "type": "Feature"}, {"geometry": {"coordinates": [9.218655, 49.142291, 0], "type": "Point"}, "properties": {"city_name": "Heilbronn", "mentions": 3}, "type": "Feature"}, {"geometry": {"coordinates": [10.523606599999999, 52.26465770000001, 0], "type": "Point"}, "properties": {"city_name": "Braunschweig", "mentions": 2}, "type": "Feature"}, {"geometry": {"coordinates": [13.0146632, 43.842417299999994, 0], "type": "Point"}, "properties": {"city_name": "Fano", "mentions": 1}, "type": "Feature"}, {"geometry": {"coordinates": [12.798884, 41.960922, 0], "type": "Point"}, "properties": {"city_name": "Tivoli", "mentions": 2}, "type": "Feature"}, {"geometry": {"coordinates": [2.398932, 47.0805693, 0], "type": "Point"}, "properties": {"city_name": "Bourges", "mentions": 1}, "type": "Feature"}, {"geometry": {"coordinates": [12.4853384, 41.894802, 0], "type": "Point"}, "properties": {"city_name": "Roma", "mentions": 54}, "type": "Feature"}, {"geometry": {"coordinates": [3.4772986000000006, 43.3134386, 0], "type": "Point"}, "properties": {"city_name": "Agde", "mentions": 12}, "type": "Feature"}, {"geometry": {"coordinates": [-2.2441009, 53.4791301, 0], "type": "Point"}, "properties": {"city_name": "Manchester", "mentions": 7}, "type": "Feature"}, {"geometry": {"coordinates": [-1.5758538999999998, 54.7764152, 0], "type": "Point"}, "properties": {"city_name": "Durham", "mentions": 1}, "type": "Feature"}, {"geometry": {"coordinates": [3.226772, 51.208552600000004, 0], "type": "Point"}, "properties": {"city_name": "Brugge", "mentions": 1}, "type": "Feature"}, {"geometry": {"coordinates": [-2.2904086, 53.59640970000001, 0], "type": "Point"}, "properties": {"city_name": "Bury", "mentions": 1}, "type": "Feature"}, {"geometry": {"coordinates": [11.883205499999999, 44.2855555, 0], "type": "Point"}, "properties": {"city_name": "Faenza", "mentions": 1}, "type": "Feature"}, {"geometry": {"coordinates": [-4.2435817, 55.85665600000001, 0], "type": "Point"}, "properties": {"city_name": "Glasgow", "mentions": 5}, "type": "Feature"}, {"geometry": {"coordinates": [-0.43156769999999994, 53.8425488, 0], "type": "Point"}, "properties": {"city_name": "Beverley", "mentions": 1}, "type": "Feature"}, {"geometry": {"coordinates": [-2.5176602999999997, 52.70003570000001, 0], "type": "Point"}, "properties": {"city_name": "Wellington", "mentions": 1}, "type": "Feature"}, {"geometry": {"coordinates": [-6.3599595, 36.6228636, 0], "type": "Point"}, "properties": {"city_name": "Rota", "mentions": 1}, "type": "Feature"}, {"geometry": {"coordinates": [12.3747329, 51.3406321, 0], "type": "Point"}, "properties": {"city_name": "Leipzig", "mentions": 6}, "type": "Feature"}, {"geometry": {"coordinates": [9.738553199999998, 52.374477899999995, 0], "type": "Point"}, "properties": {"city_name": "Hannover", "mentions": 56}, "type": "Feature"}, {"geometry": {"coordinates": [11.3290855, 50.980281299999994, 0], "type": "Point"}, "properties": {"city_name": "Weimar", "mentions": 3}, "type": "Feature"}, {"geometry": {"coordinates": [7.5878261, 47.55810770000001, 0], "type": "Point"}, "properties": {"city_name": "Basel", "mentions": 6}, "type": "Feature"}, {"geometry": {"coordinates": [5.592143, 47.445541, 0], "type": "Point"}, "properties": {"city_name": "Gray", "mentions": 1}, "type": "Feature"}, {"geometry": {"coordinates": [38.500949, 52.609361, 0], "type": "Point"}, "properties": {"city_name": "Elec", "mentions": 2}, "type": "Feature"}, {"geometry": {"coordinates": [21.0714111288323, 52.2337172, 0], "type": "Point"}, "properties": {"city_name": "Warszawa", "mentions": 4}, "type": "Feature"}, {"geometry": {"coordinates": [9.5653284, 54.51851, 0], "type": "Point"}, "properties": {"city_name": "Schleswig", "mentions": 14}, "type": "Feature"}, {"geometry": {"coordinates": [4.362724538544, 51.9994572, 0], "type": "Point"}, "properties": {"city_name": "Delft", "mentions": 11}, "type": "Feature"}, {"geometry": {"coordinates": [-1.1492773, 52.9534161, 0], "type": "Point"}, "properties": {"city_name": "Nottingham", "mentions": 1}, "type": "Feature"}, {"geometry": {"coordinates": [107.46396599999999, 52.154205, 0], "type": "Point"}, "properties": {"city_name": "Ostrog", "mentions": 1}, "type": "Feature"}, {"geometry": {"coordinates": [3.0706414, 50.630508899999995, 0], "type": "Point"}, "properties": {"city_name": "Lille", "mentions": 13}, "type": "Feature"}, {"geometry": {"coordinates": [5.3699525, 43.2961743, 0], "type": "Point"}, "properties": {"city_name": "Marseille", "mentions": 1}, "type": "Feature"}, {"geometry": {"coordinates": [13.2461296, 52.84554920000001, 0], "type": "Point"}, "properties": {"city_name": "Brandenburg", "mentions": 23}, "type": "Feature"}, {"geometry": {"coordinates": [6.1834097, 48.6937223, 0], "type": "Point"}, "properties": {"city_name": "Nancy", "mentions": 2}, "type": "Feature"}, {"geometry": {"coordinates": [37.6176606, 55.7507178, 0], "type": "Point"}, "properties": {"city_name": "Moskva", "mentions": 6}, "type": "Feature"}, {"geometry": {"coordinates": [16.366238199999998, 56.6628826, 0], "type": "Point"}, "properties": {"city_name": "Kalmar", "mentions": 16}, "type": "Feature"}, {"geometry": {"coordinates": [10.037147599999999, 56.461754500000005, 0], "type": "Point"}, "properties": {"city_name": "Randers", "mentions": 9}, "type": "Feature"}, {"geometry": {"coordinates": [11.4148038, 53.628829700000004, 0], "type": "Point"}, "properties": {"city_name": "Schwerin", "mentions": 2}, "type": "Feature"}, {"geometry": {"coordinates": [4.351697, 50.8465573, 0], "type": "Point"}, "properties": {"city_name": "Bruxelles", "mentions": 2}, "type": "Feature"}, {"geometry": {"coordinates": [12.7363357, 42.735512400000005, 0], "type": "Point"}, "properties": {"city_name": "Spoleto", "mentions": 1}, "type": "Feature"}, {"geometry": {"coordinates": [-1.0815361000000001, 53.959055500000005, 0], "type": "Point"}, "properties": {"city_name": "York", "mentions": 10}, "type": "Feature"}, {"geometry": {"coordinates": [0.0911374, 48.4312059, 0], "type": "Point"}, "properties": {"city_name": "Alencon", "mentions": 1}, "type": "Feature"}, {"geometry": {"coordinates": [9.9193939, 57.0482206, 0], "type": "Point"}, "properties": {"city_name": "Ålborg", "mentions": 1}, "type": "Feature"}, {"geometry": {"coordinates": [-2.5972985, 51.453802200000005, 0], "type": "Point"}, "properties": {"city_name": "Bristol", "mentions": 1}, "type": "Feature"}, {"geometry": {"coordinates": [8.288627799999999, 51.4387667, 0], "type": "Point"}, "properties": {"city_name": "Halle", "mentions": 10}, "type": "Feature"}, {"geometry": {"coordinates": [11.464793199999999, 53.89098320000001, 0], "type": "Point"}, "properties": {"city_name": "Wismar", "mentions": 4}, "type": "Feature"}, {"geometry": {"coordinates": [20.7708973, 47.6101406, 0], "type": "Point"}, "properties": {"city_name": "Buda", "mentions": 1}, "type": "Feature"}, {"geometry": {"coordinates": [11.8099186, 51.1525648, 0], "type": "Point"}, "properties": {"city_name": "Naumburg", "mentions": 1}, "type": "Feature"}, {"geometry": {"coordinates": [7.7270296, 51.0946826, 0], "type": "Point"}, "properties": {"city_name": "Hardenberg", "mentions": 9}, "type": "Feature"}, {"geometry": {"coordinates": [10.7389701, 59.913330099999996, 0], "type": "Point"}, "properties": {"city_name": "Oslo", "mentions": 24}, "type": "Feature"}, {"geometry": {"coordinates": [2.8319805000000002, 50.4291723, 0], "type": "Point"}, "properties": {"city_name": "Lens", "mentions": 92}, "type": "Feature"}, {"geometry": {"coordinates": [13.5170982, 43.6170137, 0], "type": "Point"}, "properties": {"city_name": "Ancona", "mentions": 1}, "type": "Feature"}, {"geometry": {"coordinates": [15.5866422, 56.162107299999995, 0], "type": "Point"}, "properties": {"city_name": "Karlskrona", "mentions": 1}, "type": "Feature"}, {"geometry": {"coordinates": [26.9281768, 46.924875799999995, 0], "type": "Point"}, "properties": {"city_name": "Roman", "mentions": 44}, "type": "Feature"}, {"geometry": {"coordinates": [13.3524434, 38.1112268, 0], "type": "Point"}, "properties": {"city_name": "Palermo", "mentions": 1}, "type": "Feature"}, {"geometry": {"coordinates": [-0.3690815, 49.182800799999995, 0], "type": "Point"}, "properties": {"city_name": "Caen", "mentions": 2}, "type": "Feature"}, {"geometry": {"coordinates": [142.13213480000002, 46.8166594, 0], "type": "Point"}, "properties": {"city_name": "Riga", "mentions": 7}, "type": "Feature"}, {"geometry": {"coordinates": [1.1526345, 52.0579495, 0], "type": "Point"}, "properties": {"city_name": "Ipswich", "mentions": 1}, "type": "Feature"}, {"geometry": {"coordinates": [9.9513046, 52.1521636, 0], "type": "Point"}, "properties": {"city_name": "Hildesheim", "mentions": 7}, "type": "Feature"}, {"geometry": {"coordinates": [10.4018624, 43.715939500000005, 0], "type": "Point"}, "properties": {"city_name": "Pisa", "mentions": 5}, "type": "Feature"}, {"geometry": {"coordinates": [14.4275735, 51.1813907, 0], "type": "Point"}, "properties": {"city_name": "Bautzen", "mentions": 1}, "type": "Feature"}, {"geometry": {"coordinates": [6.6441878, 49.7596208, 0], "type": "Point"}, "properties": {"city_name": "Trier", "mentions": 4}, "type": "Feature"}, {"geometry": {"coordinates": [19.9970637622827, 50.04691015, 0], "type": "Point"}, "properties": {"city_name": "Krakow", "mentions": 2}, "type": "Feature"}, {"geometry": {"coordinates": [10.2134046, 56.14962779999999, 0], "type": "Point"}, "properties": {"city_name": "Aarhus", "mentions": 99}, "type": "Feature"}, {"geometry": {"coordinates": [-0.0395734, 41.2366709, 0], "type": "Point"}, "properties": {"city_name": "Caspe", "mentions": 2}, "type": "Feature"}, {"geometry": {"coordinates": [-1.8604874, 53.72292289999999, 0], "type": "Point"}, "properties": {"city_name": "Halifax", "mentions": 1}, "type": "Feature"}, {"geometry": {"coordinates": [7.689014, 51.5348835, 0], "type": "Point"}, "properties": {"city_name": "Unna", "mentions": 8}, "type": "Feature"}, {"geometry": {"coordinates": [12.5700724, 55.6867243, 0], "type": "Point"}, "properties": {"city_name": "Kjøbenhavn", "mentions": 14}, "type": "Feature"}, {"geometry": {"coordinates": [3.5489707000000004, 45.855795, 0], "type": "Point"}, "properties": {"city_name": "Thiers", "mentions": 2}, "type": "Feature"}, {"geometry": {"coordinates": [3.282606, 48.1978559, 0], "type": "Point"}, "properties": {"city_name": "Sens", "mentions": 4}, "type": "Feature"}, {"geometry": {"coordinates": [10.385783, 42.7615052, 0], "type": "Point"}, "properties": {"city_name": "Mola", "mentions": 1}, "type": "Feature"}, {"geometry": {"coordinates": [10.8986971, 48.3668041, 0], "type": "Point"}, "properties": {"city_name": "Augsburg", "mentions": 2}, "type": "Feature"}, {"geometry": {"coordinates": [25.9542057, 43.84804129999999, 0], "type": "Point"}, "properties": {"city_name": "Ruse", "mentions": 3}, "type": "Feature"}, {"geometry": {"coordinates": [-5.166591599999999, 36.7421339, 0], "type": "Point"}, "properties": {"city_name": "Ronda", "mentions": 1}, "type": "Feature"}, {"geometry": {"coordinates": [3.2988089, 48.5602959, 0], "type": "Point"}, "properties": {"city_name": "Provins", "mentions": 36}, "type": "Feature"}, {"geometry": {"coordinates": [8.214601700000001, 53.138975300000006, 0], "type": "Point"}, "properties": {"city_name": "Oldenburg", "mentions": 15}, "type": "Feature"}, {"geometry": {"coordinates": [1.0939658, 49.4404591, 0], "type": "Point"}, "properties": {"city_name": "Rouen", "mentions": 1}, "type": "Feature"}, {"geometry": {"coordinates": [12.1286127, 54.09244449999999, 0], "type": "Point"}, "properties": {"city_name": "Rostock", "mentions": 13}, "type": "Feature"}, {"geometry": {"coordinates": [12.614666900000001, 43.071195200000005, 0], "type": "Point"}, "properties": {"city_name": "Assisi", "mentions": 3}, "type": "Feature"}, {"geometry": {"coordinates": [10.3951929, 63.4305658, 0], "type": "Point"}, "properties": {"city_name": "Trondheim", "mentions": 7}, "type": "Feature"}, {"geometry": {"coordinates": [-121.87676640000001, 37.239243, 0], "type": "Point"}, "properties": {"city_name": "Porto", "mentions": 3}, "type": "Feature"}, {"geometry": {"coordinates": [10.309145599999999, 43.5507411, 0], "type": "Point"}, "properties": {"city_name": "Livorno", "mentions": 2}, "type": "Feature"}, {"geometry": {"coordinates": [-5.3939824, 41.5216963, 0], "type": "Point"}, "properties": {"city_name": "Toro", "mentions": 1}, "type": "Feature"}, {"geometry": {"coordinates": [0.6889268, 47.3900474, 0], "type": "Point"}, "properties": {"city_name": "Tours", "mentions": 3}, "type": "Feature"}, {"geometry": {"coordinates": [10.502875999999999, 43.8428381, 0], "type": "Point"}, "properties": {"city_name": "Lucca", "mentions": 1}, "type": "Feature"}, {"geometry": {"coordinates": [3.61007100494229, 51.50529485, 0], "type": "Point"}, "properties": {"city_name": "Middelburg", "mentions": 1}, "type": "Feature"}, {"geometry": {"coordinates": [-2.0525828379987203, 48.45528935, 0], "type": "Point"}, "properties": {"city_name": "Dinan", "mentions": 1}, "type": "Feature"}, {"geometry": {"coordinates": [5.7324722, 58.968042700000005, 0], "type": "Point"}, "properties": {"city_name": "Stavanger", "mentions": 9}, "type": "Feature"}, {"geometry": {"coordinates": [10.2134046, 56.14962779999999, 0], "type": "Point"}, "properties": {"city_name": "Århus", "mentions": 1}, "type": "Feature"}, {"geometry": {"coordinates": [7.0028334, 51.3882195, 0], "type": "Point"}, "properties": {"city_name": "Werden", "mentions": 1}, "type": "Feature"}, {"geometry": {"coordinates": [13.5713017, 37.8250916, 0], "type": "Point"}, "properties": {"city_name": "Vicari", "mentions": 1}, "type": "Feature"}, {"geometry": {"coordinates": [9.4059354, 56.4469128, 0], "type": "Point"}, "properties": {"city_name": "Viborg", "mentions": 78}, "type": "Feature"}, {"geometry": {"coordinates": [8.3603088, 49.6352685, 0], "type": "Point"}, "properties": {"city_name": "Worms", "mentions": 1}, "type": "Feature"}, {"geometry": {"coordinates": [8.8071646, 53.0758196, 0], "type": "Point"}, "properties": {"city_name": "Bremen", "mentions": 23}, "type": "Feature"}, {"geometry": {"coordinates": [3.4991057, 44.5180226, 0], "type": "Point"}, "properties": {"city_name": "Mende", "mentions": 3}, "type": "Feature"}, {"geometry": {"coordinates": [21.905737, 43.322489000000004, 0], "type": "Point"}, "properties": {"city_name": "Nis", "mentions": 4}, "type": "Feature"}, {"geometry": {"coordinates": [-1.5437941000000002, 53.797418500000006, 0], "type": "Point"}, "properties": {"city_name": "Leeds", "mentions": 1}, "type": "Feature"}, {"geometry": {"coordinates": [-1.4761491000000002, 52.92126170000001, 0], "type": "Point"}, "properties": {"city_name": "Derby", "mentions": 1}, "type": "Feature"}, {"geometry": {"coordinates": [-0.5392172, 53.2336301, 0], "type": "Point"}, "properties": {"city_name": "Lincoln", "mentions": 11}, "type": "Feature"}, {"geometry": {"coordinates": [-0.9696511999999999, 51.456659, 0], "type": "Point"}, "properties": {"city_name": "Reading", "mentions": 1}, "type": "Feature"}, {"geometry": {"coordinates": [6.0243246, 47.237953000000005, 0], "type": "Point"}, "properties": {"city_name": "Besancon", "mentions": 1}, "type": "Feature"}, {"geometry": {"coordinates": [14.6026095, 40.63367, 0], "type": "Point"}, "properties": {"city_name": "Amalfi", "mentions": 1}, "type": "Feature"}, {"geometry": {"coordinates": [9.1904984, 45.4667971, 0], "type": "Point"}, "properties": {"city_name": "Milano", "mentions": 3}, "type": "Feature"}, {"geometry": {"coordinates": [5.3970648, 43.8757936, 0], "type": "Point"}, "properties": {"city_name": "Apt", "mentions": 1}, "type": "Feature"}, {"geometry": {"coordinates": [11.8734455, 45.4077172, 0], "type": "Point"}, "properties": {"city_name": "Padova", "mentions": 1}, "type": "Feature"}, {"geometry": {"coordinates": [17.64112, 59.859412600000006, 0], "type": "Point"}, "properties": {"city_name": "Uppsala", "mentions": 12}, "type": "Feature"}, {"geometry": {"coordinates": [4.943340900000001, 49.7033759, 0], "type": "Point"}, "properties": {"city_name": "Sedan", "mentions": 3}, "type": "Feature"}, {"geometry": {"coordinates": [9.1546375, 45.18600429999999, 0], "type": "Point"}, "properties": {"city_name": "Pavia", "mentions": 1}, "type": "Feature"}, {"geometry": {"coordinates": [12.434098800000001, 50.9852411, 0], "type": "Point"}, "properties": {"city_name": "Altenburg", "mentions": 3}, "type": "Feature"}, {"geometry": {"coordinates": [12.0974869, 49.0195333, 0], "type": "Point"}, "properties": {"city_name": "Regensburg", "mentions": 1}, "type": "Feature"}, {"geometry": {"coordinates": [4.2374349, 50.7360524, 0], "type": "Point"}, "properties": {"city_name": "Halle", "mentions": 10}, "type": "Feature"}, {"geometry": {"coordinates": [2.6500745, 39.569581799999995, 0], "type": "Point"}, "properties": {"city_name": "Palma", "mentions": 1}, "type": "Feature"}, {"geometry": {"coordinates": [4.48862326925829, 51.92779805, 0], "type": "Point"}, "properties": {"city_name": "Rotterdam", "mentions": 3}, "type": "Feature"}, {"geometry": {"coordinates": [13.388859900000002, 52.517036499999996, 0], "type": "Point"}, "properties": {"city_name": "Berlin", "mentions": 49}, "type": "Feature"}, {"geometry": {"coordinates": [-4.033442, 55.7759095, 0], "type": "Point"}, "properties": {"city_name": "Hamilton", "mentions": 25}, "type": "Feature"}, {"geometry": {"coordinates": [0.1235817, 52.2034823, 0], "type": "Point"}, "properties": {"city_name": "Cambridge", "mentions": 32}, "type": "Feature"}, {"geometry": {"coordinates": [39.716485999999996, 47.224694899999996, 0], "type": "Point"}, "properties": {"city_name": "Rostov", "mentions": 2}, "type": "Feature"}, {"geometry": {"coordinates": [3.7769485, 50.6311349, 0], "type": "Point"}, "properties": {"city_name": "Ath", "mentions": 24}, "type": "Feature"}, {"geometry": {"coordinates": [16.372504199999998, 48.2083537, 0], "type": "Point"}, "properties": {"city_name": "Wien", "mentions": 51}, "type": "Feature"}, {"geometry": {"coordinates": [12.081924699999998, 55.6433478, 0], "type": "Point"}, "properties": {"city_name": "Roskilde", "mentions": 145}, "type": "Feature"}, {"geometry": {"coordinates": [5.4304381741379295, 51.89242535, 0], "type": "Point"}, "properties": {"city_name": "Tiel", "mentions": 1}, "type": "Feature"}, {"geometry": {"coordinates": [-1.2578499, 51.7520131, 0], "type": "Point"}, "properties": {"city_name": "Oxford", "mentions": 24}, "type": "Feature"}, {"geometry": {"coordinates": [9.4333264, 54.78330210000001, 0], "type": "Point"}, "properties": {"city_name": "Flensburg", "mentions": 2}, "type": "Feature"}, {"geometry": {"coordinates": [11.343034699999999, 44.4936714, 0], "type": "Point"}, "properties": {"city_name": "Bologna", "mentions": 1}, "type": "Feature"}, {"geometry": {"coordinates": [5.4925463, 47.0921047, 0], "type": "Point"}, "properties": {"city_name": "Dole", "mentions": 1}, "type": "Feature"}, {"geometry": {"coordinates": [-4.4860088, 48.3905283, 0], "type": "Point"}, "properties": {"city_name": "Brest", "mentions": 1}, "type": "Feature"}, {"geometry": {"coordinates": [7.011429, 51.457087, 0], "type": "Point"}, "properties": {"city_name": "Essen", "mentions": 1}, "type": "Feature"}, {"geometry": {"coordinates": [-1.1330788999999999, 52.636139799999995, 0], "type": "Point"}, "properties": {"city_name": "Leicester", "mentions": 2}, "type": "Feature"}, {"geometry": {"coordinates": [5.12768031549829, 52.08095165, 0], "type": "Point"}, "properties": {"city_name": "Utrecht", "mentions": 17}, "type": "Feature"}, {"geometry": {"coordinates": [16.9197520238885, 52.4006522, 0], "type": "Point"}, "properties": {"city_name": "Poznan", "mentions": 1}, "type": "Feature"}, {"geometry": {"coordinates": [9.0538156, 54.485363799999995, 0], "type": "Point"}, "properties": {"city_name": "Husum", "mentions": 10}, "type": "Feature"}, {"geometry": {"coordinates": [8.764869778177559, 51.71895955, 0], "type": "Point"}, "properties": {"city_name": "Paderborn", "mentions": 5}, "type": "Feature"}, {"geometry": {"coordinates": [131.4449817, 43.029595799999996, 0], "type": "Point"}, "properties": {"city_name": "Narva", "mentions": 3}, "type": "Feature"}, {"geometry": {"coordinates": [29.476082, 46.830942, 0], "type": "Point"}, "properties": {"city_name": "Bender", "mentions": 10}, "type": "Feature"}, {"geometry": {"coordinates": [13.0904622, 54.3159851, 0], "type": "Point"}, "properties": {"city_name": "Stralsund", "mentions": 4}, "type": "Feature"}, {"geometry": {"coordinates": [6.176355200000001, 49.119696399999995, 0], "type": "Point"}, "properties": {"city_name": "Metz", "mentions": 13}, "type": "Feature"}, {"geometry": {"coordinates": [26.726972999999997, 58.369766000000006, 0], "type": "Point"}, "properties": {"city_name": "Tartu", "mentions": 1}, "type": "Feature"}, {"geometry": {"coordinates": [8.025636, 44.691542, 0], "type": "Point"}, "properties": {"city_name": "Alba", "mentions": 6}, "type": "Feature"}, {"geometry": {"coordinates": [10.081052, 52.624056, 0], "type": "Point"}, "properties": {"city_name": "Celle", "mentions": 5}, "type": "Feature"}, {"geometry": {"coordinates": [-1.894053, 52.47753960000001, 0], "type": "Point"}, "properties": {"city_name": "Birmingham", "mentions": 1}, "type": "Feature"}, {"geometry": {"coordinates": [3.3878258999999997, 50.60566, 0], "type": "Point"}, "properties": {"city_name": "Tournai", "mentions": 1}, "type": "Feature"}, {"geometry": {"coordinates": [11.6399609, 52.1315889, 0], "type": "Point"}, "properties": {"city_name": "Magdeburg", "mentions": 3}, "type": "Feature"}, {"geometry": {"coordinates": [1.4881434, 48.4438601, 0], "type": "Point"}, "properties": {"city_name": "Chartres", "mentions": 1}, "type": "Feature"}, {"geometry": {"coordinates": [3.9519580000000003, 50.4549568, 0], "type": "Point"}, "properties": {"city_name": "Mons", "mentions": 8}, "type": "Feature"}, {"geometry": {"coordinates": [11.537191002239801, 59.06805550000001, 0], "type": "Point"}, "properties": {"city_name": "Halden", "mentions": 3}, "type": "Feature"}, {"geometry": {"coordinates": [12.3345898, 45.437190799999996, 0], "type": "Point"}, "properties": {"city_name": "Venezia", "mentions": 2}, "type": "Feature"}, {"geometry": {"coordinates": [7.5943951, 50.3533278, 0], "type": "Point"}, "properties": {"city_name": "Koblenz", "mentions": 1}, "type": "Feature"}, {"geometry": {"coordinates": [12.6136135, 56.0345277, 0], "type": "Point"}, "properties": {"city_name": "Helsingør", "mentions": 24}, "type": "Feature"}, {"geometry": {"coordinates": [3.7250121, 51.0538286, 0], "type": "Point"}, "properties": {"city_name": "Gent", "mentions": 27}, "type": "Feature"}, {"geometry": {"coordinates": [12.5700724, 55.6867243, 0], "type": "Point"}, "properties": {"city_name": "København", "mentions": 374}, "type": "Feature"}, {"geometry": {"coordinates": [17.299948, 40.9522369, 0], "type": "Point"}, "properties": {"city_name": "Monopoli", "mentions": 1}, "type": "Feature"}, {"geometry": {"coordinates": [14.5722829, 40.7376592, 0], "type": "Point"}, "properties": {"city_name": "Angri", "mentions": 1}, "type": "Feature"}, {"geometry": {"coordinates": [110.82620940000001, 55.2229642, 0], "type": "Point"}, "properties": {"city_name": "Tallin", "mentions": 1}, "type": "Feature"}, {"geometry": {"coordinates": [23.695692, 52.09943, 0], "type": "Point"}, "properties": {"city_name": "Brest", "mentions": 1}, "type": "Feature"}, {"geometry": {"coordinates": [11.0195132, 49.329553499999996, 0], "type": "Point"}, "properties": {"city_name": "Schwabach", "mentions": 3}, "type": "Feature"}, {"geometry": {"coordinates": [-0.36856679999999997, 43.2957547, 0], "type": "Point"}, "properties": {"city_name": "Pau", "mentions": 36}, "type": "Feature"}, {"geometry": {"coordinates": [2.1266886, 48.8035403, 0], "type": "Point"}, "properties": {"city_name": "Versailles", "mentions": 3}, "type": "Feature"}, {"geometry": {"coordinates": [7.2058304, 53.3670541, 0], "type": "Point"}, "properties": {"city_name": "Emden", "mentions": 3}, "type": "Feature"}, {"geometry": {"coordinates": [5.69698818182211, 50.85798545, 0], "type": "Point"}, "properties": {"city_name": "Maastricht", "mentions": 6}, "type": "Feature"}, {"geometry": {"coordinates": [18.297982, 57.637936100000005, 0], "type": "Point"}, "properties": {"city_name": "Visby", "mentions": 4}, "type": "Feature"}, {"geometry": {"coordinates": [9.676511, 50.5521486, 0], "type": "Point"}, "properties": {"city_name": "Fulda", "mentions": 1}, "type": "Feature"}, {"geometry": {"coordinates": [4.569651599999999, 51.131069000000004, 0], "type": "Point"}, "properties": {"city_name": "Lier", "mentions": 3}, "type": "Feature"}, {"geometry": {"coordinates": [-1.7951176, 51.073661200000004, 0], "type": "Point"}, "properties": {"city_name": "Salisbury", "mentions": 18}, "type": "Feature"}, {"geometry": {"coordinates": [6.1326288, 50.048301, 0], "type": "Point"}, "properties": {"city_name": "Burg", "mentions": 45}, "type": "Feature"}, {"geometry": {"coordinates": [-0.1276474, 51.5073219, 0], "type": "Point"}, "properties": {"city_name": "London", "mentions": 61}, "type": "Feature"}, {"geometry": {"coordinates": [10.135555, 54.3227085, 0], "type": "Point"}, "properties": {"city_name": "Kiel", "mentions": 31}, "type": "Feature"}, {"geometry": {"coordinates": [12.829673399999999, 55.8698007, 0], "type": "Point"}, "properties": {"city_name": "Landskrona", "mentions": 26}, "type": "Feature"}, {"geometry": {"coordinates": [4.91242, 50.260816600000005, 0], "type": "Point"}, "properties": {"city_name": "Dinant", "mentions": 1}, "type": "Feature"}, {"geometry": {"coordinates": [9.175071800000001, 47.659216, 0], "type": "Point"}, "properties": {"city_name": "Konstanz", "mentions": 2}, "type": "Feature"}, {"geometry": {"coordinates": [10.000653999999999, 53.550341, 0], "type": "Point"}, "properties": {"city_name": "Hamburg", "mentions": 42}, "type": "Feature"}, {"geometry": {"coordinates": [-3.7035824999999996, 40.416704700000004, 0], "type": "Point"}, "properties": {"city_name": "Madrid", "mentions": 2}, "type": "Feature"}, {"geometry": {"coordinates": [5.067726588147821, 52.62254545, 0], "type": "Point"}, "properties": {"city_name": "Hoorn", "mentions": 2}, "type": "Feature"}, {"geometry": {"coordinates": [9.77766972686892, 53.58646755, 0], "type": "Point"}, "properties": {"city_name": "Altona", "mentions": 27}, "type": "Feature"}, {"geometry": {"coordinates": [10.6085739, 55.063888399999996, 0], "type": "Point"}, "properties": {"city_name": "Svendborg", "mentions": 4}, "type": "Feature"}, {"geometry": {"coordinates": [12.646761, 51.8666527, 0], "type": "Point"}, "properties": {"city_name": "Wittenberg", "mentions": 4}, "type": "Feature"}, {"geometry": {"coordinates": [8.9338624, 44.40726, 0], "type": "Point"}, "properties": {"city_name": "Genova", "mentions": 1}, "type": "Feature"}, {"geometry": {"coordinates": [12.0409384, 44.222601700000006, 0], "type": "Point"}, "properties": {"city_name": "Forli", "mentions": 24}, "type": "Feature"}, {"geometry": {"coordinates": [13.7381437, 51.0493286, 0], "type": "Point"}, "properties": {"city_name": "Dresden", "mentions": 4}, "type": "Feature"}, {"geometry": {"coordinates": [11.5478825, 45.5488306, 0], "type": "Point"}, "properties": {"city_name": "Vicenza", "mentions": 1}, "type": "Feature"}, {"geometry": {"coordinates": [10.8876149, 49.8926723, 0], "type": "Point"}, "properties": {"city_name": "Bamberg", "mentions": 2}, "type": "Feature"}, {"geometry": {"coordinates": [0.5292758000000001, 51.380484499999994, 0], "type": "Point"}, "properties": {"city_name": "Chatham", "mentions": 1}, "type": "Feature"}, {"geometry": {"coordinates": [4.89797550561798, 52.3745403, 0], "type": "Point"}, "properties": {"city_name": "Amsterdam", "mentions": 39}, "type": "Feature"}, {"geometry": {"coordinates": [6.1761306398455895, 52.24927325, 0], "type": "Point"}, "properties": {"city_name": "Deventer", "mentions": 5}, "type": "Feature"}, {"geometry": {"coordinates": [4.8159442195472595, 52.45030615, 0], "type": "Point"}, "properties": {"city_name": "Zaandam", "mentions": 1}, "type": "Feature"}, {"geometry": {"coordinates": [31.275786199999995, 58.52098620000001, 0], "type": "Point"}, "properties": {"city_name": "Novgorod", "mentions": 1}, "type": "Feature"}, {"geometry": {"coordinates": [-2.2206585, 52.191184899999996, 0], "type": "Point"}, "properties": {"city_name": "Worcester", "mentions": 2}, "type": "Feature"}, {"geometry": {"coordinates": [4.3997081, 51.2211097, 0], "type": "Point"}, "properties": {"city_name": "Antwerpen", "mentions": 8}, "type": "Feature"}, {"geometry": {"coordinates": [6.083862, 50.776351, 0], "type": "Point"}, "properties": {"city_name": "Aachen", "mentions": 2}, "type": "Feature"}, {"geometry": {"coordinates": [-2.3596963, 51.3813864, 0], "type": "Point"}, "properties": {"city_name": "Bath", "mentions": 1}, "type": "Feature"}, {"geometry": {"coordinates": [18.0710935, 59.3251172, 0], "type": "Point"}, "properties": {"city_name": "Stockholm", "mentions": 77}, "type": "Feature"}, {"geometry": {"coordinates": [8.8641282, 44.89666, 0], "type": "Point"}, "properties": {"city_name": "Tortona", "mentions": 1}, "type": "Feature"}, {"geometry": {"coordinates": [6.131367415330139, 51.785483899999996, 0], "type": "Point"}, "properties": {"city_name": "Kleve", "mentions": 11}, "type": "Feature"}, {"geometry": {"coordinates": [5.0528680999999995, 45.0458886, 0], "type": "Point"}, "properties": {"city_name": "Romans", "mentions": 1}, "type": "Feature"}, {"geometry": {"coordinates": [2.3514992, 48.856610100000005, 0], "type": "Point"}, "properties": {"city_name": "Paris", "mentions": 35}, "type": "Feature"}, {"geometry": {"coordinates": [5.4263436049647105, 43.514925399999996, 0], "type": "Point"}, "properties": {"city_name": "Orange", "mentions": 17}, "type": "Feature"}, {"geometry": {"coordinates": [2.2956951, 49.8941708, 0], "type": "Point"}, "properties": {"city_name": "Amiens", "mentions": 1}, "type": "Feature"}, {"geometry": {"coordinates": [11.2555757, 43.769871200000004, 0], "type": "Point"}, "properties": {"city_name": "Firenze", "mentions": 5}, "type": "Feature"}, {"geometry": {"coordinates": [9.6645115, 54.3046701, 0], "type": "Point"}, "properties": {"city_name": "Rendsburg", "mentions": 8}, "type": "Feature"}, {"geometry": {"coordinates": [11.397137204221098, 47.26951525, 0], "type": "Point"}, "properties": {"city_name": "Innsbruck", "mentions": 3}, "type": "Feature"}, {"geometry": {"coordinates": [9.4624705, 51.307686700000005, 0], "type": "Point"}, "properties": {"city_name": "Kassel", "mentions": 1}, "type": "Feature"}, {"geometry": {"coordinates": [8.433615, 49.3165553, 0], "type": "Point"}, "properties": {"city_name": "Speyer", "mentions": 4}, "type": "Feature"}, {"geometry": {"coordinates": [0.6176324000000001, 44.2015624, 0], "type": "Point"}, "properties": {"city_name": "Agen", "mentions": 8}, "type": "Feature"}], "type": "FeatureCollection"}