{"features": [{"geometry": {"coordinates": [15.2196575, 37.236936299999996, 0], "type": "Point"}, "properties": {"city_name": "Augusta", "mentions": 4}, "type": "Feature"}, {"geometry": {"coordinates": [-1.5541361999999999, 47.2186371, 0], "type": "Point"}, "properties": {"city_name": "Nantes", "mentions": 1}, "type": "Feature"}, {"geometry": {"coordinates": [-1.4790341, 43.090916, 0], "type": "Point"}, "properties": {"city_name": "Alba", "mentions": 8}, "type": "Feature"}, {"geometry": {"coordinates": [-5.995317099999999, 37.388630299999996, 0], "type": "Point"}, "properties": {"city_name": "Sevilla", "mentions": 1}, "type": "Feature"}, {"geometry": {"coordinates": [10.992412199999999, 45.4384958, 0], "type": "Point"}, "properties": {"city_name": "Verona", "mentions": 1}, "type": "Feature"}, {"geometry": {"coordinates": [2.4325247, 50.9683886, 0], "type": "Point"}, "properties": {"city_name": "Bergues", "mentions": 1}, "type": "Feature"}, {"geometry": {"coordinates": [5.3258117, 60.3943034, 0], "type": "Point"}, "properties": {"city_name": "Bergen", "mentions": 18}, "type": "Feature"}, {"geometry": {"coordinates": [0.283896428437724, 52.40187065, 0], "type": "Point"}, "properties": {"city_name": "Ely", "mentions": 3}, "type": "Feature"}, {"geometry": {"coordinates": [-5.5682413, 42.5989995, 0], "type": "Point"}, "properties": {"city_name": "Leon", "mentions": 18}, "type": "Feature"}, {"geometry": {"coordinates": [12.0857291, 51.964030799999996, 0], "type": "Point"}, "properties": {"city_name": "Zerbst", "mentions": 1}, "type": "Feature"}, {"geometry": {"coordinates": [10.3852104, 55.399722499999996, 0], "type": "Point"}, "properties": {"city_name": "Odense", "mentions": 60}, "type": "Feature"}, {"geometry": {"coordinates": [8.694724, 49.40935820000001, 0], "type": "Point"}, "properties": {"city_name": "Heidelberg", "mentions": 1}, "type": "Feature"}, {"geometry": {"coordinates": [7.463146803781759, 53.2473626, 0], "type": "Point"}, "properties": {"city_name": "Leer", "mentions": 1}, "type": "Feature"}, {"geometry": {"coordinates": [-1.4906872, 38.0418669, 0], "type": "Point"}, "properties": {"city_name": "Mula", "mentions": 1}, "type": "Feature"}, {"geometry": {"coordinates": [2.7772210999999998, 50.291047999999996, 0], "type": "Point"}, "properties": {"city_name": "Arras", "mentions": 3}, "type": "Feature"}, {"geometry": {"coordinates": [-0.3394758, 53.74357220000001, 0], "type": "Point"}, "properties": {"city_name": "Hull", "mentions": 3}, "type": "Feature"}, {"geometry": {"coordinates": [7.750712700000001, 48.584614, 0], "type": "Point"}, "properties": {"city_name": "Strasbourg", "mentions": 1}, "type": "Feature"}, {"geometry": {"coordinates": [-0.5800364, 44.841225, 0], "type": "Point"}, "properties": {"city_name": "Bordeaux", "mentions": 2}, "type": "Feature"}, {"geometry": {"coordinates": [9.9193939, 57.0482206, 0], "type": "Point"}, "properties": {"city_name": "Aalborg", "mentions": 11}, "type": "Feature"}, {"geometry": {"coordinates": [-4.1024782, 47.9960325, 0], "type": "Point"}, "properties": {"city_name": "Quimper", "mentions": 1}, "type": "Feature"}, {"geometry": {"coordinates": [1.0802533, 51.2800275, 0], "type": "Point"}, "properties": {"city_name": "Canterbury", "mentions": 2}, "type": "Feature"}, {"geometry": {"coordinates": [7.4652789, 51.5142273, 0], "type": "Point"}, "properties": {"city_name": "Dortmund", "mentions": 2}, "type": "Feature"}, {"geometry": {"coordinates": [16.460756, 43.514802, 0], "type": "Point"}, "properties": {"city_name": "Split", "mentions": 6}, "type": "Feature"}, {"geometry": {"coordinates": [10.523606599999999, 52.26465770000001, 0], "type": "Point"}, "properties": {"city_name": "Braunschweig", "mentions": 5}, "type": "Feature"}, {"geometry": {"coordinates": [11.9382855, 58.349055500000006, 0], "type": "Point"}, "properties": {"city_name": "Uddevalla", "mentions": 7}, "type": "Feature"}, {"geometry": {"coordinates": [10.6945265, 50.9462725, 0], "type": "Point"}, "properties": {"city_name": "Gotha", "mentions": 4}, "type": "Feature"}, {"geometry": {"coordinates": [12.4853384, 41.894802, 0], "type": "Point"}, "properties": {"city_name": "Roma", "mentions": 15}, "type": "Feature"}, {"geometry": {"coordinates": [-1.5758538999999998, 54.7764152, 0], "type": "Point"}, "properties": {"city_name": "Durham", "mentions": 1}, "type": "Feature"}, {"geometry": {"coordinates": [16.056884099999998, 39.3304782, 0], "type": "Point"}, "properties": {"city_name": "Casale", "mentions": 1}, "type": "Feature"}, {"geometry": {"coordinates": [-2.2904086, 53.59640970000001, 0], "type": "Point"}, "properties": {"city_name": "Bury", "mentions": 2}, "type": "Feature"}, {"geometry": {"coordinates": [11.331653300000001, 43.3185536, 0], "type": "Point"}, "properties": {"city_name": "Siena", "mentions": 1}, "type": "Feature"}, {"geometry": {"coordinates": [-2.5176602999999997, 52.70003570000001, 0], "type": "Point"}, "properties": {"city_name": "Wellington", "mentions": 1}, "type": "Feature"}, {"geometry": {"coordinates": [-4.370238099999999, 37.32526420000001, 0], "type": "Point"}, "properties": {"city_name": "Rute", "mentions": 2}, "type": "Feature"}, {"geometry": {"coordinates": [12.3747329, 51.3406321, 0], "type": "Point"}, "properties": {"city_name": "Leipzig", "mentions": 7}, "type": "Feature"}, {"geometry": {"coordinates": [9.738553199999998, 52.374477899999995, 0], "type": "Point"}, "properties": {"city_name": "Hannover", "mentions": 9}, "type": "Feature"}, {"geometry": {"coordinates": [11.3290855, 50.980281299999994, 0], "type": "Point"}, "properties": {"city_name": "Weimar", "mentions": 5}, "type": "Feature"}, {"geometry": {"coordinates": [7.5878261, 47.55810770000001, 0], "type": "Point"}, "properties": {"city_name": "Basel", "mentions": 4}, "type": "Feature"}, {"geometry": {"coordinates": [2.3826829, 45.6160984, 0], "type": "Point"}, "properties": {"city_name": "Aix", "mentions": 1}, "type": "Feature"}, {"geometry": {"coordinates": [9.5653284, 54.51851, 0], "type": "Point"}, "properties": {"city_name": "Schleswig", "mentions": 31}, "type": "Feature"}, {"geometry": {"coordinates": [2.1478990000000002, 43.9277552, 0], "type": "Point"}, "properties": {"city_name": "Albi", "mentions": 3}, "type": "Feature"}, {"geometry": {"coordinates": [3.0706414, 50.630508899999995, 0], "type": "Point"}, "properties": {"city_name": "Lille", "mentions": 13}, "type": "Feature"}, {"geometry": {"coordinates": [5.3699525, 43.2961743, 0], "type": "Point"}, "properties": {"city_name": "Marseille", "mentions": 2}, "type": "Feature"}, {"geometry": {"coordinates": [-2.9362311, 54.8948478, 0], "type": "Point"}, "properties": {"city_name": "Carlisle", "mentions": 2}, "type": "Feature"}, {"geometry": {"coordinates": [13.2461296, 52.84554920000001, 0], "type": "Point"}, "properties": {"city_name": "Brandenburg", "mentions": 16}, "type": "Feature"}, {"geometry": {"coordinates": [6.1834097, 48.6937223, 0], "type": "Point"}, "properties": {"city_name": "Nancy", "mentions": 1}, "type": "Feature"}, {"geometry": {"coordinates": [10.037147599999999, 56.461754500000005, 0], "type": "Point"}, "properties": {"city_name": "Randers", "mentions": 24}, "type": "Feature"}, {"geometry": {"coordinates": [37.6176606, 55.7507178, 0], "type": "Point"}, "properties": {"city_name": "Moskva", "mentions": 3}, "type": "Feature"}, {"geometry": {"coordinates": [16.366238199999998, 56.6628826, 0], "type": "Point"}, "properties": {"city_name": "Kalmar", "mentions": 12}, "type": "Feature"}, {"geometry": {"coordinates": [17.4705293, 47.326108700000006, 0], "type": "Point"}, "properties": {"city_name": "Papa", "mentions": 1}, "type": "Feature"}, {"geometry": {"coordinates": [4.351697, 50.8465573, 0], "type": "Point"}, "properties": {"city_name": "Bruxelles", "mentions": 1}, "type": "Feature"}, {"geometry": {"coordinates": [11.4148038, 53.628829700000004, 0], "type": "Point"}, "properties": {"city_name": "Schwerin", "mentions": 2}, "type": "Feature"}, {"geometry": {"coordinates": [8.775774199999999, 50.81173270000001, 0], "type": "Point"}, "properties": {"city_name": "Marburg", "mentions": 1}, "type": "Feature"}, {"geometry": {"coordinates": [12.7363357, 42.735512400000005, 0], "type": "Point"}, "properties": {"city_name": "Spoleto", "mentions": 1}, "type": "Feature"}, {"geometry": {"coordinates": [-2.0928095, 57.1482429, 0], "type": "Point"}, "properties": {"city_name": "Aberdeen", "mentions": 3}, "type": "Feature"}, {"geometry": {"coordinates": [-1.0815361000000001, 53.959055500000005, 0], "type": "Point"}, "properties": {"city_name": "York", "mentions": 3}, "type": "Feature"}, {"geometry": {"coordinates": [13.470493900000001, 51.163087100000006, 0], "type": "Point"}, "properties": {"city_name": "Meissen", "mentions": 1}, "type": "Feature"}, {"geometry": {"coordinates": [0.0911374, 48.4312059, 0], "type": "Point"}, "properties": {"city_name": "Alencon", "mentions": 3}, "type": "Feature"}, {"geometry": {"coordinates": [9.9193939, 57.0482206, 0], "type": "Point"}, "properties": {"city_name": "Ålborg", "mentions": 3}, "type": "Feature"}, {"geometry": {"coordinates": [8.288627799999999, 51.4387667, 0], "type": "Point"}, "properties": {"city_name": "Halle", "mentions": 5}, "type": "Feature"}, {"geometry": {"coordinates": [5.019766000000001, 46.812785299999994, 0], "type": "Point"}, "properties": {"city_name": "Cosne", "mentions": 1}, "type": "Feature"}, {"geometry": {"coordinates": [11.464793199999999, 53.89098320000001, 0], "type": "Point"}, "properties": {"city_name": "Wismar", "mentions": 7}, "type": "Feature"}, {"geometry": {"coordinates": [20.7708973, 47.6101406, 0], "type": "Point"}, "properties": {"city_name": "Buda", "mentions": 2}, "type": "Feature"}, {"geometry": {"coordinates": [7.7270296, 51.0946826, 0], "type": "Point"}, "properties": {"city_name": "Hardenberg", "mentions": 4}, "type": "Feature"}, {"geometry": {"coordinates": [10.7389701, 59.913330099999996, 0], "type": "Point"}, "properties": {"city_name": "Oslo", "mentions": 21}, "type": "Feature"}, {"geometry": {"coordinates": [2.8319805000000002, 50.4291723, 0], "type": "Point"}, "properties": {"city_name": "Lens", "mentions": 80}, "type": "Feature"}, {"geometry": {"coordinates": [-7.316801, 54.991942099999996, 0], "type": "Point"}, "properties": {"city_name": "Londonderry", "mentions": 1}, "type": "Feature"}, {"geometry": {"coordinates": [26.9281768, 46.924875799999995, 0], "type": "Point"}, "properties": {"city_name": "Roman", "mentions": 15}, "type": "Feature"}, {"geometry": {"coordinates": [19.1278294, 47.778287299999995, 0], "type": "Point"}, "properties": {"city_name": "Vac", "mentions": 1}, "type": "Feature"}, {"geometry": {"coordinates": [6.1296751, 49.8158683, 0], "type": "Point"}, "properties": {"city_name": "Luxemburg", "mentions": 1}, "type": "Feature"}, {"geometry": {"coordinates": [8.651177, 49.872775, 0], "type": "Point"}, "properties": {"city_name": "Darmstadt", "mentions": 3}, "type": "Feature"}, {"geometry": {"coordinates": [7.849400500000001, 47.9960901, 0], "type": "Point"}, "properties": {"city_name": "Freiburg", "mentions": 2}, "type": "Feature"}, {"geometry": {"coordinates": [13.3524434, 38.1112268, 0], "type": "Point"}, "properties": {"city_name": "Palermo", "mentions": 1}, "type": "Feature"}, {"geometry": {"coordinates": [5.8385196119892, 51.84260195, 0], "type": "Point"}, "properties": {"city_name": "Nijmegen", "mentions": 2}, "type": "Feature"}, {"geometry": {"coordinates": [142.13213480000002, 46.8166594, 0], "type": "Point"}, "properties": {"city_name": "Riga", "mentions": 2}, "type": "Feature"}, {"geometry": {"coordinates": [1.1076133, 41.1555564, 0], "type": "Point"}, "properties": {"city_name": "Reus", "mentions": 4}, "type": "Feature"}, {"geometry": {"coordinates": [2.0823355, 49.43009970000001, 0], "type": "Point"}, "properties": {"city_name": "Beauvais", "mentions": 1}, "type": "Feature"}, {"geometry": {"coordinates": [-2.0820103, 52.511472700000006, 0], "type": "Point"}, "properties": {"city_name": "Dudley", "mentions": 1}, "type": "Feature"}, {"geometry": {"coordinates": [10.4018624, 43.715939500000005, 0], "type": "Point"}, "properties": {"city_name": "Pisa", "mentions": 1}, "type": "Feature"}, {"geometry": {"coordinates": [9.993275500000001, 48.397394399999996, 0], "type": "Point"}, "properties": {"city_name": "Ulm", "mentions": 1}, "type": "Feature"}, {"geometry": {"coordinates": [9.2735257, 45.583441799999996, 0], "type": "Point"}, "properties": {"city_name": "Monza", "mentions": 1}, "type": "Feature"}, {"geometry": {"coordinates": [9.9513046, 52.1521636, 0], "type": "Point"}, "properties": {"city_name": "Hildesheim", "mentions": 2}, "type": "Feature"}, {"geometry": {"coordinates": [10.2134046, 56.14962779999999, 0], "type": "Point"}, "properties": {"city_name": "Aarhus", "mentions": 34}, "type": "Feature"}, {"geometry": {"coordinates": [11.153969900000002, 52.8528456, 0], "type": "Point"}, "properties": {"city_name": "Salzwedel", "mentions": 2}, "type": "Feature"}, {"geometry": {"coordinates": [-1.8604874, 53.72292289999999, 0], "type": "Point"}, "properties": {"city_name": "Halifax", "mentions": 1}, "type": "Feature"}, {"geometry": {"coordinates": [12.5700724, 55.6867243, 0], "type": "Point"}, "properties": {"city_name": "Kjøbenhavn", "mentions": 4}, "type": "Feature"}, {"geometry": {"coordinates": [3.5489707000000004, 45.855795, 0], "type": "Point"}, "properties": {"city_name": "Thiers", "mentions": 2}, "type": "Feature"}, {"geometry": {"coordinates": [3.282606, 48.1978559, 0], "type": "Point"}, "properties": {"city_name": "Sens", "mentions": 1}, "type": "Feature"}, {"geometry": {"coordinates": [10.5722288, 49.3028611, 0], "type": "Point"}, "properties": {"city_name": "Ansbach", "mentions": 1}, "type": "Feature"}, {"geometry": {"coordinates": [10.8986971, 48.3668041, 0], "type": "Point"}, "properties": {"city_name": "Augsburg", "mentions": 1}, "type": "Feature"}, {"geometry": {"coordinates": [3.2988089, 48.5602959, 0], "type": "Point"}, "properties": {"city_name": "Provins", "mentions": 38}, "type": "Feature"}, {"geometry": {"coordinates": [8.214601700000001, 53.138975300000006, 0], "type": "Point"}, "properties": {"city_name": "Oldenburg", "mentions": 5}, "type": "Feature"}, {"geometry": {"coordinates": [12.1286127, 54.09244449999999, 0], "type": "Point"}, "properties": {"city_name": "Rostock", "mentions": 14}, "type": "Feature"}, {"geometry": {"coordinates": [1.0939658, 49.4404591, 0], "type": "Point"}, "properties": {"city_name": "Rouen", "mentions": 3}, "type": "Feature"}, {"geometry": {"coordinates": [-121.87676640000001, 37.239243, 0], "type": "Point"}, "properties": {"city_name": "Porto", "mentions": 1}, "type": "Feature"}, {"geometry": {"coordinates": [-5.3939824, 41.5216963, 0], "type": "Point"}, "properties": {"city_name": "Toro", "mentions": 1}, "type": "Feature"}, {"geometry": {"coordinates": [13.4150241, 37.952892600000006, 0], "type": "Point"}, "properties": {"city_name": "Marineo", "mentions": 1}, "type": "Feature"}, {"geometry": {"coordinates": [0.6889268, 47.3900474, 0], "type": "Point"}, "properties": {"city_name": "Tours", "mentions": 1}, "type": "Feature"}, {"geometry": {"coordinates": [12.2422442, 44.136352, 0], "type": "Point"}, "properties": {"city_name": "Cesena", "mentions": 1}, "type": "Feature"}, {"geometry": {"coordinates": [10.2134046, 56.14962779999999, 0], "type": "Point"}, "properties": {"city_name": "Århus", "mentions": 3}, "type": "Feature"}, {"geometry": {"coordinates": [9.4059354, 56.4469128, 0], "type": "Point"}, "properties": {"city_name": "Viborg", "mentions": 79}, "type": "Feature"}, {"geometry": {"coordinates": [10.328083300000001, 44.801367799999994, 0], "type": "Point"}, "properties": {"city_name": "Parma", "mentions": 1}, "type": "Feature"}, {"geometry": {"coordinates": [8.3603088, 49.6352685, 0], "type": "Point"}, "properties": {"city_name": "Worms", "mentions": 3}, "type": "Feature"}, {"geometry": {"coordinates": [8.8071646, 53.0758196, 0], "type": "Point"}, "properties": {"city_name": "Bremen", "mentions": 108}, "type": "Feature"}, {"geometry": {"coordinates": [-6.834213900000001, 38.627396000000005, 0], "type": "Point"}, "properties": {"city_name": "Gibraltar", "mentions": 1}, "type": "Feature"}, {"geometry": {"coordinates": [21.905737, 43.322489000000004, 0], "type": "Point"}, "properties": {"city_name": "Nis", "mentions": 16}, "type": "Feature"}, {"geometry": {"coordinates": [3.4991057, 44.5180226, 0], "type": "Point"}, "properties": {"city_name": "Mende", "mentions": 2}, "type": "Feature"}, {"geometry": {"coordinates": [6.0243246, 47.237953000000005, 0], "type": "Point"}, "properties": {"city_name": "Besancon", "mentions": 1}, "type": "Feature"}, {"geometry": {"coordinates": [-0.8872594458318379, 48.8517468, 0], "type": "Point"}, "properties": {"city_name": "Vire", "mentions": 1}, "type": "Feature"}, {"geometry": {"coordinates": [11.003645, 49.5981187, 0], "type": "Point"}, "properties": {"city_name": "Erlangen", "mentions": 1}, "type": "Feature"}, {"geometry": {"coordinates": [17.64112, 59.859412600000006, 0], "type": "Point"}, "properties": {"city_name": "Uppsala", "mentions": 3}, "type": "Feature"}, {"geometry": {"coordinates": [10.1395519, 44.0359323, 0], "type": "Point"}, "properties": {"city_name": "Massa", "mentions": 1}, "type": "Feature"}, {"geometry": {"coordinates": [9.1546375, 45.18600429999999, 0], "type": "Point"}, "properties": {"city_name": "Pavia", "mentions": 1}, "type": "Feature"}, {"geometry": {"coordinates": [12.0974869, 49.0195333, 0], "type": "Point"}, "properties": {"city_name": "Regensburg", "mentions": 1}, "type": "Feature"}, {"geometry": {"coordinates": [4.2374349, 50.7360524, 0], "type": "Point"}, "properties": {"city_name": "Halle", "mentions": 5}, "type": "Feature"}, {"geometry": {"coordinates": [2.6500745, 39.569581799999995, 0], "type": "Point"}, "properties": {"city_name": "Palma", "mentions": 1}, "type": "Feature"}, {"geometry": {"coordinates": [4.48862326925829, 51.92779805, 0], "type": "Point"}, "properties": {"city_name": "Rotterdam", "mentions": 1}, "type": "Feature"}, {"geometry": {"coordinates": [11.7439565, 48.400827299999996, 0], "type": "Point"}, "properties": {"city_name": "Freising", "mentions": 1}, "type": "Feature"}, {"geometry": {"coordinates": [13.388859900000002, 52.517036499999996, 0], "type": "Point"}, "properties": {"city_name": "Berlin", "mentions": 30}, "type": "Feature"}, {"geometry": {"coordinates": [-4.033442, 55.7759095, 0], "type": "Point"}, "properties": {"city_name": "Hamilton", "mentions": 157}, "type": "Feature"}, {"geometry": {"coordinates": [0.1235817, 52.2034823, 0], "type": "Point"}, "properties": {"city_name": "Cambridge", "mentions": 2}, "type": "Feature"}, {"geometry": {"coordinates": [39.716485999999996, 47.224694899999996, 0], "type": "Point"}, "properties": {"city_name": "Rostov", "mentions": 1}, "type": "Feature"}, {"geometry": {"coordinates": [3.7769485, 50.6311349, 0], "type": "Point"}, "properties": {"city_name": "Ath", "mentions": 3}, "type": "Feature"}, {"geometry": {"coordinates": [16.372504199999998, 48.2083537, 0], "type": "Point"}, "properties": {"city_name": "Wien", "mentions": 22}, "type": "Feature"}, {"geometry": {"coordinates": [12.081924699999998, 55.6433478, 0], "type": "Point"}, "properties": {"city_name": "Roskilde", "mentions": 194}, "type": "Feature"}, {"geometry": {"coordinates": [7.3738413000000005, 44.78549879999999, 0], "type": "Point"}, "properties": {"city_name": "Cavour", "mentions": 2}, "type": "Feature"}, {"geometry": {"coordinates": [11.5763079, 49.942720200000004, 0], "type": "Point"}, "properties": {"city_name": "Bayreuth", "mentions": 1}, "type": "Feature"}, {"geometry": {"coordinates": [-0.7692125, 38.3459902, 0], "type": "Point"}, "properties": {"city_name": "Aspe", "mentions": 1}, "type": "Feature"}, {"geometry": {"coordinates": [-6.2602732, 53.3497645, 0], "type": "Point"}, "properties": {"city_name": "Dublin", "mentions": 4}, "type": "Feature"}, {"geometry": {"coordinates": [-1.2578499, 51.7520131, 0], "type": "Point"}, "properties": {"city_name": "Oxford", "mentions": 9}, "type": "Feature"}, {"geometry": {"coordinates": [9.4333264, 54.78330210000001, 0], "type": "Point"}, "properties": {"city_name": "Flensburg", "mentions": 2}, "type": "Feature"}, {"geometry": {"coordinates": [11.659796, 45.2240069, 0], "type": "Point"}, "properties": {"city_name": "Este", "mentions": 4}, "type": "Feature"}, {"geometry": {"coordinates": [11.343034699999999, 44.4936714, 0], "type": "Point"}, "properties": {"city_name": "Bologna", "mentions": 2}, "type": "Feature"}, {"geometry": {"coordinates": [-0.5515588, 47.473988399999996, 0], "type": "Point"}, "properties": {"city_name": "Angers", "mentions": 3}, "type": "Feature"}, {"geometry": {"coordinates": [5.4925463, 47.0921047, 0], "type": "Point"}, "properties": {"city_name": "Dole", "mentions": 1}, "type": "Feature"}, {"geometry": {"coordinates": [1.4442469, 43.6044622, 0], "type": "Point"}, "properties": {"city_name": "Toulouse", "mentions": 2}, "type": "Feature"}, {"geometry": {"coordinates": [1.0791444, 49.924618200000005, 0], "type": "Point"}, "properties": {"city_name": "Dieppe", "mentions": 2}, "type": "Feature"}, {"geometry": {"coordinates": [-1.1330788999999999, 52.636139799999995, 0], "type": "Point"}, "properties": {"city_name": "Leicester", "mentions": 1}, "type": "Feature"}, {"geometry": {"coordinates": [-4.4860088, 48.3905283, 0], "type": "Point"}, "properties": {"city_name": "Brest", "mentions": 2}, "type": "Feature"}, {"geometry": {"coordinates": [11.996148, 51.35644129999999, 0], "type": "Point"}, "properties": {"city_name": "Merseburg", "mentions": 4}, "type": "Feature"}, {"geometry": {"coordinates": [7.011429, 51.457087, 0], "type": "Point"}, "properties": {"city_name": "Essen", "mentions": 2}, "type": "Feature"}, {"geometry": {"coordinates": [2.7015872000000005, 48.4049375, 0], "type": "Point"}, "properties": {"city_name": "Fontainebleau", "mentions": 4}, "type": "Feature"}, {"geometry": {"coordinates": [9.0538156, 54.485363799999995, 0], "type": "Point"}, "properties": {"city_name": "Husum", "mentions": 11}, "type": "Feature"}, {"geometry": {"coordinates": [5.12768031549829, 52.08095165, 0], "type": "Point"}, "properties": {"city_name": "Utrecht", "mentions": 1}, "type": "Feature"}, {"geometry": {"coordinates": [131.4449817, 43.029595799999996, 0], "type": "Point"}, "properties": {"city_name": "Narva", "mentions": 6}, "type": "Feature"}, {"geometry": {"coordinates": [5.8941759000000005, 48.6762624, 0], "type": "Point"}, "properties": {"city_name": "Toul", "mentions": 2}, "type": "Feature"}, {"geometry": {"coordinates": [13.0904622, 54.3159851, 0], "type": "Point"}, "properties": {"city_name": "Stralsund", "mentions": 4}, "type": "Feature"}, {"geometry": {"coordinates": [8.025636, 44.691542, 0], "type": "Point"}, "properties": {"city_name": "Alba", "mentions": 8}, "type": "Feature"}, {"geometry": {"coordinates": [1.4881434, 48.4438601, 0], "type": "Point"}, "properties": {"city_name": "Chartres", "mentions": 1}, "type": "Feature"}, {"geometry": {"coordinates": [11.6399609, 52.1315889, 0], "type": "Point"}, "properties": {"city_name": "Magdeburg", "mentions": 1}, "type": "Feature"}, {"geometry": {"coordinates": [3.9519580000000003, 50.4549568, 0], "type": "Point"}, "properties": {"city_name": "Mons", "mentions": 4}, "type": "Feature"}, {"geometry": {"coordinates": [-3.4708163, 37.9945171, 0], "type": "Point"}, "properties": {"city_name": "Baza", "mentions": 1}, "type": "Feature"}, {"geometry": {"coordinates": [-1.3131692, 51.0612766, 0], "type": "Point"}, "properties": {"city_name": "Winchester", "mentions": 1}, "type": "Feature"}, {"geometry": {"coordinates": [12.3345898, 45.437190799999996, 0], "type": "Point"}, "properties": {"city_name": "Venezia", "mentions": 1}, "type": "Feature"}, {"geometry": {"coordinates": [6.568007700000001, 53.2190652, 0], "type": "Point"}, "properties": {"city_name": "Groningen", "mentions": 1}, "type": "Feature"}, {"geometry": {"coordinates": [12.6136135, 56.0345277, 0], "type": "Point"}, "properties": {"city_name": "Helsingør", "mentions": 8}, "type": "Feature"}, {"geometry": {"coordinates": [13.381523800000002, 54.095791000000006, 0], "type": "Point"}, "properties": {"city_name": "Greifswald", "mentions": 3}, "type": "Feature"}, {"geometry": {"coordinates": [8.276251299999998, 50.0012314, 0], "type": "Point"}, "properties": {"city_name": "Mainz", "mentions": 3}, "type": "Feature"}, {"geometry": {"coordinates": [5.0414701, 47.321580600000004, 0], "type": "Point"}, "properties": {"city_name": "Dijon", "mentions": 1}, "type": "Feature"}, {"geometry": {"coordinates": [3.7250121, 51.0538286, 0], "type": "Point"}, "properties": {"city_name": "Gent", "mentions": 6}, "type": "Feature"}, {"geometry": {"coordinates": [12.5700724, 55.6867243, 0], "type": "Point"}, "properties": {"city_name": "København", "mentions": 157}, "type": "Feature"}, {"geometry": {"coordinates": [6.9292641, 46.9895828, 0], "type": "Point"}, "properties": {"city_name": "Neuchatel", "mentions": 1}, "type": "Feature"}, {"geometry": {"coordinates": [14.5722829, 40.7376592, 0], "type": "Point"}, "properties": {"city_name": "Angri", "mentions": 5}, "type": "Feature"}, {"geometry": {"coordinates": [11.966785699999999, 51.199979299999995, 0], "type": "Point"}, "properties": {"city_name": "Weissenfels", "mentions": 4}, "type": "Feature"}, {"geometry": {"coordinates": [4.8320114, 45.75781370000001, 0], "type": "Point"}, "properties": {"city_name": "Lyon", "mentions": 3}, "type": "Feature"}, {"geometry": {"coordinates": [11.0554519, 51.892656099999996, 0], "type": "Point"}, "properties": {"city_name": "Halberstadt", "mentions": 3}, "type": "Feature"}, {"geometry": {"coordinates": [14.721345499999998, 36.921982799999995, 0], "type": "Point"}, "properties": {"city_name": "Ragusa", "mentions": 1}, "type": "Feature"}, {"geometry": {"coordinates": [23.695692, 52.09943, 0], "type": "Point"}, "properties": {"city_name": "Brest", "mentions": 2}, "type": "Feature"}, {"geometry": {"coordinates": [2.1266886, 48.8035403, 0], "type": "Point"}, "properties": {"city_name": "Versailles", "mentions": 5}, "type": "Feature"}, {"geometry": {"coordinates": [-0.36856679999999997, 43.2957547, 0], "type": "Point"}, "properties": {"city_name": "Pau", "mentions": 25}, "type": "Feature"}, {"geometry": {"coordinates": [3.41500576760136, 51.49433865, 0], "type": "Point"}, "properties": {"city_name": "Vlissingen", "mentions": 2}, "type": "Feature"}, {"geometry": {"coordinates": [7.2058304, 53.3670541, 0], "type": "Point"}, "properties": {"city_name": "Emden", "mentions": 10}, "type": "Feature"}, {"geometry": {"coordinates": [18.297982, 57.637936100000005, 0], "type": "Point"}, "properties": {"city_name": "Visby", "mentions": 7}, "type": "Feature"}, {"geometry": {"coordinates": [9.676511, 50.5521486, 0], "type": "Point"}, "properties": {"city_name": "Fulda", "mentions": 1}, "type": "Feature"}, {"geometry": {"coordinates": [4.569651599999999, 51.131069000000004, 0], "type": "Point"}, "properties": {"city_name": "Lier", "mentions": 1}, "type": "Feature"}, {"geometry": {"coordinates": [12.829673399999999, 55.8698007, 0], "type": "Point"}, "properties": {"city_name": "Landskrona", "mentions": 1}, "type": "Feature"}, {"geometry": {"coordinates": [-0.1276474, 51.5073219, 0], "type": "Point"}, "properties": {"city_name": "London", "mentions": 50}, "type": "Feature"}, {"geometry": {"coordinates": [10.135555, 54.3227085, 0], "type": "Point"}, "properties": {"city_name": "Kiel", "mentions": 69}, "type": "Feature"}, {"geometry": {"coordinates": [6.1326288, 50.048301, 0], "type": "Point"}, "properties": {"city_name": "Burg", "mentions": 3}, "type": "Feature"}, {"geometry": {"coordinates": [1.308319, 51.1299804, 0], "type": "Point"}, "properties": {"city_name": "Dover", "mentions": 1}, "type": "Feature"}, {"geometry": {"coordinates": [10.000653999999999, 53.550341, 0], "type": "Point"}, "properties": {"city_name": "Hamburg", "mentions": 40}, "type": "Feature"}, {"geometry": {"coordinates": [-3.7035824999999996, 40.416704700000004, 0], "type": "Point"}, "properties": {"city_name": "Madrid", "mentions": 1}, "type": "Feature"}, {"geometry": {"coordinates": [12.646761, 51.8666527, 0], "type": "Point"}, "properties": {"city_name": "Wittenberg", "mentions": 5}, "type": "Feature"}, {"geometry": {"coordinates": [10.6085739, 55.063888399999996, 0], "type": "Point"}, "properties": {"city_name": "Svendborg", "mentions": 1}, "type": "Feature"}, {"geometry": {"coordinates": [9.77766972686892, 53.58646755, 0], "type": "Point"}, "properties": {"city_name": "Altona", "mentions": 11}, "type": "Feature"}, {"geometry": {"coordinates": [1.9086066000000002, 47.9027336, 0], "type": "Point"}, "properties": {"city_name": "Orleans", "mentions": 1}, "type": "Feature"}, {"geometry": {"coordinates": [12.0409384, 44.222601700000006, 0], "type": "Point"}, "properties": {"city_name": "Forli", "mentions": 20}, "type": "Feature"}, {"geometry": {"coordinates": [13.7381437, 51.0493286, 0], "type": "Point"}, "properties": {"city_name": "Dresden", "mentions": 7}, "type": "Feature"}, {"geometry": {"coordinates": [15.732769000000001, 40.378311, 0], "type": "Point"}, "properties": {"city_name": "Paterno", "mentions": 1}, "type": "Feature"}, {"geometry": {"coordinates": [8.9168852, 52.288104499999996, 0], "type": "Point"}, "properties": {"city_name": "Minden", "mentions": 1}, "type": "Feature"}, {"geometry": {"coordinates": [14.2487826, 40.835933600000004, 0], "type": "Point"}, "properties": {"city_name": "Napoli", "mentions": 1}, "type": "Feature"}, {"geometry": {"coordinates": [11.5478825, 45.5488306, 0], "type": "Point"}, "properties": {"city_name": "Vicenza", "mentions": 1}, "type": "Feature"}, {"geometry": {"coordinates": [4.89797550561798, 52.3745403, 0], "type": "Point"}, "properties": {"city_name": "Amsterdam", "mentions": 8}, "type": "Feature"}, {"geometry": {"coordinates": [9.1800132, 48.778448499999996, 0], "type": "Point"}, "properties": {"city_name": "Stuttgart", "mentions": 1}, "type": "Feature"}, {"geometry": {"coordinates": [10.4266284, 51.9059936, 0], "type": "Point"}, "properties": {"city_name": "Goslar", "mentions": 3}, "type": "Feature"}, {"geometry": {"coordinates": [31.275786199999995, 58.52098620000001, 0], "type": "Point"}, "properties": {"city_name": "Novgorod", "mentions": 2}, "type": "Feature"}, {"geometry": {"coordinates": [4.3997081, 51.2211097, 0], "type": "Point"}, "properties": {"city_name": "Antwerpen", "mentions": 3}, "type": "Feature"}, {"geometry": {"coordinates": [6.083862, 50.776351, 0], "type": "Point"}, "properties": {"city_name": "Aachen", "mentions": 1}, "type": "Feature"}, {"geometry": {"coordinates": [20.3743665, 47.898988700000004, 0], "type": "Point"}, "properties": {"city_name": "Eger", "mentions": 1}, "type": "Feature"}, {"geometry": {"coordinates": [18.0710935, 59.3251172, 0], "type": "Point"}, "properties": {"city_name": "Stockholm", "mentions": 60}, "type": "Feature"}, {"geometry": {"coordinates": [4.6677478, 51.8075316, 0], "type": "Point"}, "properties": {"city_name": "Dordrecht", "mentions": 1}, "type": "Feature"}, {"geometry": {"coordinates": [11.0287364, 50.9777974, 0], "type": "Point"}, "properties": {"city_name": "Erfurt", "mentions": 3}, "type": "Feature"}, {"geometry": {"coordinates": [2.3514992, 48.856610100000005, 0], "type": "Point"}, "properties": {"city_name": "Paris", "mentions": 46}, "type": "Feature"}, {"geometry": {"coordinates": [4.6575708, 46.4339138, 0], "type": "Point"}, "properties": {"city_name": "Cluny", "mentions": 3}, "type": "Feature"}, {"geometry": {"coordinates": [8.1061259, 51.5725501, 0], "type": "Point"}, "properties": {"city_name": "Soest", "mentions": 3}, "type": "Feature"}, {"geometry": {"coordinates": [11.397137204221098, 47.26951525, 0], "type": "Point"}, "properties": {"city_name": "Innsbruck", "mentions": 1}, "type": "Feature"}, {"geometry": {"coordinates": [11.2555757, 43.769871200000004, 0], "type": "Point"}, "properties": {"city_name": "Firenze", "mentions": 16}, "type": "Feature"}, {"geometry": {"coordinates": [9.6645115, 54.3046701, 0], "type": "Point"}, "properties": {"city_name": "Rendsburg", "mentions": 3}, "type": "Feature"}, {"geometry": {"coordinates": [9.4624705, 51.307686700000005, 0], "type": "Point"}, "properties": {"city_name": "Kassel", "mentions": 1}, "type": "Feature"}, {"geometry": {"coordinates": [8.433615, 49.3165553, 0], "type": "Point"}, "properties": {"city_name": "Speyer", "mentions": 2}, "type": "Feature"}, {"geometry": {"coordinates": [7.10066, 50.735851000000004, 0], "type": "Point"}, "properties": {"city_name": "Bonn", "mentions": 1}, "type": "Feature"}, {"geometry": {"coordinates": [18.411589000000003, 43.844466, 0], "type": "Point"}, "properties": {"city_name": "Sarajevo", "mentions": 2}, "type": "Feature"}, {"geometry": {"coordinates": [0.6176324000000001, 44.2015624, 0], "type": "Point"}, "properties": {"city_name": "Agen", "mentions": 7}, "type": "Feature"}, {"geometry": {"coordinates": [13.0591397, 52.4009309, 0], "type": "Point"}, "properties": {"city_name": "Potsdam", "mentions": 1}, "type": "Feature"}, {"geometry": {"coordinates": [3.570579, 47.796128700000004, 0], "type": "Point"}, "properties": {"city_name": "Auxerre", "mentions": 2}, "type": "Feature"}], "type": "FeatureCollection"}