{"features": [{"geometry": {"coordinates": [9.905333, 55.271213, 0], "type": "Point"}, "properties": {"city_name": "Assens", "mentions": 6}, "type": "Feature"}, {"geometry": {"coordinates": [10.092232000000001, 52.61909, 0], "type": "Point"}, "properties": {"city_name": "Celle", "mentions": 15}, "type": "Feature"}, {"geometry": {"coordinates": [9.737141000000001, 52.38497, 0], "type": "Point"}, "properties": {"city_name": "Hannover", "mentions": 5}, "type": "Feature"}, {"geometry": {"coordinates": [11.216667, 64.06666700000001, 0], "type": "Point"}, "properties": {"city_name": "Malm", "mentions": 1}, "type": "Feature"}, {"geometry": {"coordinates": [8.3, 56.533333, 0], "type": "Point"}, "properties": {"city_name": "Lemvig", "mentions": 5}, "type": "Feature"}, {"geometry": {"coordinates": [12.17773, 49.732873, 0], "type": "Point"}, "properties": {"city_name": "Neustadt", "mentions": 2}, "type": "Feature"}, {"geometry": {"coordinates": [12.7, 56.05, 0], "type": "Point"}, "properties": {"city_name": "Helsingborg", "mentions": 19}, "type": "Feature"}, {"geometry": {"coordinates": [8.757492999999998, 51.718127, 0], "type": "Point"}, "properties": {"city_name": "Paderborn", "mentions": 1}, "type": "Feature"}, {"geometry": {"coordinates": [12.6377, 51.867470000000004, 0], "type": "Point"}, "properties": {"city_name": "Wittenberg", "mentions": 3}, "type": "Feature"}, {"geometry": {"coordinates": [11.152503, 52.854354, 0], "type": "Point"}, "properties": {"city_name": "Salzwedel", "mentions": 1}, "type": "Feature"}, {"geometry": {"coordinates": [11.629163, 52.127731, 0], "type": "Point"}, "properties": {"city_name": "Magdeburg", "mentions": 1}, "type": "Feature"}, {"geometry": {"coordinates": [64.93070069999999, 18.3419004, 0], "type": "Point"}, "properties": {"city_name": "Charlotte Amalie", "mentions": 2}, "type": "Feature"}, {"geometry": {"coordinates": [12.522092, 55.678467000000005, 0], "type": "Point"}, "properties": {"city_name": "Frederiksberg", "mentions": 5}, "type": "Feature"}, {"geometry": {"coordinates": [16.366667, 56.666667000000004, 0], "type": "Point"}, "properties": {"city_name": "Kalmar", "mentions": 3}, "type": "Feature"}, {"geometry": {"coordinates": [9.941163000000001, 57.035498, 0], "type": "Point"}, "properties": {"city_name": "Aalborg", "mentions": 38}, "type": "Feature"}, {"geometry": {"coordinates": [6.138646, 51.788258, 0], "type": "Point"}, "properties": {"city_name": "Kleve", "mentions": 1}, "type": "Feature"}, {"geometry": {"coordinates": [9.515814, 56.803808999999994, 0], "type": "Point"}, "properties": {"city_name": "Aars", "mentions": 79}, "type": "Feature"}, {"geometry": {"coordinates": [9.040245, 56.563814, 0], "type": "Point"}, "properties": {"city_name": "Skive", "mentions": 3}, "type": "Feature"}, {"geometry": {"coordinates": [11.354142, 55.402719, 0], "type": "Point"}, "properties": {"city_name": "Slagelse", "mentions": 15}, "type": "Feature"}, {"geometry": {"coordinates": [7.456430999999999, 53.233724, 0], "type": "Point"}, "properties": {"city_name": "Leer", "mentions": 1}, "type": "Feature"}, {"geometry": {"coordinates": [13.416667000000002, 58.36666700000001, 0], "type": "Point"}, "properties": {"city_name": "Skara", "mentions": 1}, "type": "Feature"}, {"geometry": {"coordinates": [12.509814, 55.73020699999999, 0], "type": "Point"}, "properties": {"city_name": "Søborg", "mentions": 2}, "type": "Feature"}, {"geometry": {"coordinates": [12.551172, 52.410928000000006, 0], "type": "Point"}, "properties": {"city_name": "Brandenburg", "mentions": 17}, "type": "Feature"}, {"geometry": {"coordinates": [10.526726, 52.265939, 0], "type": "Point"}, "properties": {"city_name": "Braunschweig", "mentions": 6}, "type": "Feature"}, {"geometry": {"coordinates": [11.1, 60.8, 0], "type": "Point"}, "properties": {"city_name": "Hamar", "mentions": 1}, "type": "Feature"}, {"geometry": {"coordinates": [10.434446000000001, 51.917204, 0], "type": "Point"}, "properties": {"city_name": "Goslar", "mentions": 3}, "type": "Feature"}, {"geometry": {"coordinates": [12.833333, 55.86666700000001, 0], "type": "Point"}, "properties": {"city_name": "Landskrona", "mentions": 9}, "type": "Feature"}, {"geometry": {"coordinates": [9.517306, 53.92516, 0], "type": "Point"}, "properties": {"city_name": "Itzehoe", "mentions": 2}, "type": "Feature"}, {"geometry": {"coordinates": [11.452859, 53.893145, 0], "type": "Point"}, "properties": {"city_name": "Wismar", "mentions": 5}, "type": "Feature"}, {"geometry": {"coordinates": [9.931704, 56.031296, 0], "type": "Point"}, "properties": {"city_name": "Skanderborg", "mentions": 5}, "type": "Feature"}, {"geometry": {"coordinates": [13.816667, 55.416667000000004, 0], "type": "Point"}, "properties": {"city_name": "Ystad", "mentions": 8}, "type": "Feature"}, {"geometry": {"coordinates": [12.648947999999999, 55.635239, 0], "type": "Point"}, "properties": {"city_name": "Kastrup", "mentions": 1}, "type": "Feature"}, {"geometry": {"coordinates": [10.266667, 63.283333, 0], "type": "Point"}, "properties": {"city_name": "Melhus", "mentions": 1}, "type": "Feature"}, {"geometry": {"coordinates": [15.083332999999998, 68.9, 0], "type": "Point"}, "properties": {"city_name": "Myre", "mentions": 1}, "type": "Feature"}, {"geometry": {"coordinates": [6.016667, 59.983332999999995, 0], "type": "Point"}, "properties": {"city_name": "Rosendal", "mentions": 2}, "type": "Feature"}, {"geometry": {"coordinates": [10.225530000000001, 56.153423, 0], "type": "Point"}, "properties": {"city_name": "Aarhus", "mentions": 20}, "type": "Feature"}, {"geometry": {"coordinates": [12.183415, 55.460007999999995, 0], "type": "Point"}, "properties": {"city_name": "Køge", "mentions": 3}, "type": "Feature"}, {"geometry": {"coordinates": [11.916667, 58.916667000000004, 0], "type": "Point"}, "properties": {"city_name": "Ed", "mentions": 15}, "type": "Feature"}, {"geometry": {"coordinates": [5.46663, 60.18346, 0], "type": "Point"}, "properties": {"city_name": "Os", "mentions": 7}, "type": "Feature"}, {"geometry": {"coordinates": [10.036389999999999, 56.46070400000001, 0], "type": "Point"}, "properties": {"city_name": "Randers", "mentions": 45}, "type": "Feature"}, {"geometry": {"coordinates": [12.855556, 56.671389000000005, 0], "type": "Point"}, "properties": {"city_name": "Halmstad", "mentions": 9}, "type": "Feature"}, {"geometry": {"coordinates": [11.747976, 48.402654, 0], "type": "Point"}, "properties": {"city_name": "Freising", "mentions": 1}, "type": "Feature"}, {"geometry": {"coordinates": [16.4, 68.533333, 0], "type": "Point"}, "properties": {"city_name": "Hol", "mentions": 1}, "type": "Feature"}, {"geometry": {"coordinates": [6.64094, 50.954875, 0], "type": "Point"}, "properties": {"city_name": "Bergheim", "mentions": 1}, "type": "Feature"}, {"geometry": {"coordinates": [9.761693, 55.575781000000006, 0], "type": "Point"}, "properties": {"city_name": "Fredericia", "mentions": 7}, "type": "Feature"}, {"geometry": {"coordinates": [11.918332000000001, 50.31622, 0], "type": "Point"}, "properties": {"city_name": "Hof", "mentions": 18}, "type": "Feature"}, {"geometry": {"coordinates": [10.168292999999998, 55.977212, 0], "type": "Point"}, "properties": {"city_name": "Odder", "mentions": 2}, "type": "Feature"}, {"geometry": {"coordinates": [11.851402, 52.271784000000004, 0], "type": "Point"}, "properties": {"city_name": "Burg", "mentions": 1}, "type": "Feature"}, {"geometry": {"coordinates": [5.75, 58.966667, 0], "type": "Point"}, "properties": {"city_name": "Stavanger", "mentions": 5}, "type": "Feature"}, {"geometry": {"coordinates": [10.803394, 55.305845999999995, 0], "type": "Point"}, "properties": {"city_name": "Nyborg", "mentions": 22}, "type": "Feature"}, {"geometry": {"coordinates": [12.198974, 56.019659, 0], "type": "Point"}, "properties": {"city_name": "Helsinge", "mentions": 3}, "type": "Feature"}, {"geometry": {"coordinates": [9.795316999999999, 56.638115, 0], "type": "Point"}, "properties": {"city_name": "Hobro", "mentions": 1}, "type": "Feature"}, {"geometry": {"coordinates": [51.299807, 70.502115, 0], "type": "Point"}, "properties": {"city_name": "Sundet", "mentions": 17}, "type": "Feature"}, {"geometry": {"coordinates": [55.543555000000005, 72.379111, 0], "type": "Point"}, "properties": {"city_name": "Prøven", "mentions": 4}, "type": "Feature"}, {"geometry": {"coordinates": [10.790845, 53.694697999999995, 0], "type": "Point"}, "properties": {"city_name": "Ratzeburg", "mentions": 1}, "type": "Feature"}, {"geometry": {"coordinates": [9.476291999999999, 53.593368999999996, 0], "type": "Point"}, "properties": {"city_name": "Stade", "mentions": 2}, "type": "Feature"}, {"geometry": {"coordinates": [6.27883, 59.48234, 0], "type": "Point"}, "properties": {"city_name": "Sand", "mentions": 3}, "type": "Feature"}, {"geometry": {"coordinates": [15.583332999999998, 56.166667000000004, 0], "type": "Point"}, "properties": {"city_name": "Karlskrona", "mentions": 1}, "type": "Feature"}, {"geometry": {"coordinates": [10.135525999999999, 54.312144999999994, 0], "type": "Point"}, "properties": {"city_name": "Kiel", "mentions": 23}, "type": "Feature"}, {"geometry": {"coordinates": [8.248683999999999, 56.08642, 0], "type": "Point"}, "properties": {"city_name": "Ringkøbing", "mentions": 2}, "type": "Feature"}, {"geometry": {"coordinates": [12.316667, 55.933333, 0], "type": "Point"}, "properties": {"city_name": "Hillerød", "mentions": 1}, "type": "Feature"}, {"geometry": {"coordinates": [13.316667, 59.516667000000005, 0], "type": "Point"}, "properties": {"city_name": "Kil", "mentions": 1}, "type": "Feature"}, {"geometry": {"coordinates": [8.683733, 49.404123, 0], "type": "Point"}, "properties": {"city_name": "Heidelberg", "mentions": 2}, "type": "Feature"}, {"geometry": {"coordinates": [79.85571490000007, 11.0250073, 0], "type": "Point"}, "properties": {"city_name": "Dansborg", "mentions": 1}, "type": "Feature"}, {"geometry": {"coordinates": [11.716903, 55.713537, 0], "type": "Point"}, "properties": {"city_name": "Holbæk", "mentions": 3}, "type": "Feature"}, {"geometry": {"coordinates": [8.297178, 60.62003000000001, 0], "type": "Point"}, "properties": {"city_name": "Hol", "mentions": 1}, "type": "Feature"}, {"geometry": {"coordinates": [11.409462, 53.628372999999996, 0], "type": "Point"}, "properties": {"city_name": "Schwerin", "mentions": 13}, "type": "Feature"}, {"geometry": {"coordinates": [9.417999, 55.03621700000001, 0], "type": "Point"}, "properties": {"city_name": "Aabenraa", "mentions": 8}, "type": "Feature"}, {"geometry": {"coordinates": [14.9, 58.45, 0], "type": "Point"}, "properties": {"city_name": "Vadstena", "mentions": 1}, "type": "Feature"}, {"geometry": {"coordinates": [12.249199, 55.596631, 0], "type": "Point"}, "properties": {"city_name": "Greve", "mentions": 16}, "type": "Feature"}, {"geometry": {"coordinates": [11.784213000000001, 55.224897999999996, 0], "type": "Point"}, "properties": {"city_name": "Næstved", "mentions": 4}, "type": "Feature"}, {"geometry": {"coordinates": [10.795695, 51.501799, 0], "type": "Point"}, "properties": {"city_name": "Nordhausen", "mentions": 1}, "type": "Feature"}, {"geometry": {"coordinates": [8.359164, 49.632784, 0], "type": "Point"}, "properties": {"city_name": "Worms", "mentions": 6}, "type": "Feature"}, {"geometry": {"coordinates": [12.586267, 56.029377000000004, 0], "type": "Point"}, "properties": {"city_name": "Helsingør", "mentions": 15}, "type": "Feature"}, {"geometry": {"coordinates": [8.98076, 61.08825, 0], "type": "Point"}, "properties": {"city_name": "Slidre", "mentions": 1}, "type": "Feature"}, {"geometry": {"coordinates": [11.809436999999999, 55.441120999999995, 0], "type": "Point"}, "properties": {"city_name": "Ringsted", "mentions": 9}, "type": "Feature"}, {"geometry": {"coordinates": [12.113453, 54.086813, 0], "type": "Point"}, "properties": {"city_name": "Rostock", "mentions": 9}, "type": "Feature"}, {"geometry": {"coordinates": [5.324722, 60.391110999999995, 0], "type": "Point"}, "properties": {"city_name": "Bergen", "mentions": 10}, "type": "Feature"}, {"geometry": {"coordinates": [14.639710000000001, 51.735443, 0], "type": "Point"}, "properties": {"city_name": "Forst", "mentions": 4}, "type": "Feature"}, {"geometry": {"coordinates": [10.01534, 53.575323, 0], "type": "Point"}, "properties": {"city_name": "Hamburg", "mentions": 51}, "type": "Feature"}, {"geometry": {"coordinates": [10.705764, 50.950945000000004, 0], "type": "Point"}, "properties": {"city_name": "Gotha", "mentions": 1}, "type": "Feature"}, {"geometry": {"coordinates": [10.35, 60.7, 0], "type": "Point"}, "properties": {"city_name": "Hov", "mentions": 2}, "type": "Feature"}, {"geometry": {"coordinates": [12.357372, 55.870346999999995, 0], "type": "Point"}, "properties": {"city_name": "Allerød", "mentions": 1}, "type": "Feature"}, {"geometry": {"coordinates": [9.489315, 55.252433999999994, 0], "type": "Point"}, "properties": {"city_name": "Haderslev", "mentions": 43}, "type": "Feature"}, {"geometry": {"coordinates": [7.012282000000001, 51.45657, 0], "type": "Point"}, "properties": {"city_name": "Essen", "mentions": 1}, "type": "Feature"}, {"geometry": {"coordinates": [12.591811, 55.753674, 0], "type": "Point"}, "properties": {"city_name": "Charlottenlund", "mentions": 1}, "type": "Feature"}, {"geometry": {"coordinates": [10.611257, 49.579531, 0], "type": "Point"}, "properties": {"city_name": "Neustadt", "mentions": 2}, "type": "Feature"}, {"geometry": {"coordinates": [13.089139999999999, 67.93372, 0], "type": "Point"}, "properties": {"city_name": "Reine", "mentions": 2}, "type": "Feature"}, {"geometry": {"coordinates": [9.565161999999999, 56.170145999999995, 0], "type": "Point"}, "properties": {"city_name": "Silkeborg", "mentions": 3}, "type": "Feature"}, {"geometry": {"coordinates": [10.75, 59.916667000000004, 0], "type": "Point"}, "properties": {"city_name": "Oslo", "mentions": 5}, "type": "Feature"}, {"geometry": {"coordinates": [12.501106, 55.88098000000001, 0], "type": "Point"}, "properties": {"city_name": "Hørsholm", "mentions": 1}, "type": "Feature"}, {"geometry": {"coordinates": [8.869335000000001, 54.943118000000005, 0], "type": "Point"}, "properties": {"city_name": "Tønder", "mentions": 15}, "type": "Feature"}, {"geometry": {"coordinates": [51.305205, 69.997781, 0], "type": "Point"}, "properties": {"city_name": "Øen", "mentions": 72}, "type": "Feature"}, {"geometry": {"coordinates": [8.696409, 56.958788, 0], "type": "Point"}, "properties": {"city_name": "Thisted", "mentions": 10}, "type": "Feature"}, {"geometry": {"coordinates": [18.298582, 57.639617, 0], "type": "Point"}, "properties": {"city_name": "Visby", "mentions": 2}, "type": "Feature"}, {"geometry": {"coordinates": [6.636628, 49.75979, 0], "type": "Point"}, "properties": {"city_name": "Trier", "mentions": 7}, "type": "Feature"}, {"geometry": {"coordinates": [9.959859, 57.265112, 0], "type": "Point"}, "properties": {"city_name": "Brønderslev", "mentions": 1}, "type": "Feature"}, {"geometry": {"coordinates": [8.48073, 55.62157, 0], "type": "Point"}, "properties": {"city_name": "Varde", "mentions": 15}, "type": "Feature"}, {"geometry": {"coordinates": [9.137948, 55.48117, 0], "type": "Point"}, "properties": {"city_name": "Vejen", "mentions": 56}, "type": "Feature"}, {"geometry": {"coordinates": [11.502436999999999, 54.775197999999996, 0], "type": "Point"}, "properties": {"city_name": "Maribo", "mentions": 1}, "type": "Feature"}, {"geometry": {"coordinates": [9.873531, 55.865675, 0], "type": "Point"}, "properties": {"city_name": "Horsens", "mentions": 10}, "type": "Feature"}, {"geometry": {"coordinates": [13.183333, 55.7, 0], "type": "Point"}, "properties": {"city_name": "Lund", "mentions": 44}, "type": "Feature"}, {"geometry": {"coordinates": [9.542763, 55.708391000000006, 0], "type": "Point"}, "properties": {"city_name": "Vejle", "mentions": 6}, "type": "Feature"}, {"geometry": {"coordinates": [11.100425999999999, 55.681984, 0], "type": "Point"}, "properties": {"city_name": "Kalundborg", "mentions": 5}, "type": "Feature"}, {"geometry": {"coordinates": [11.560856, 55.438715, 0], "type": "Point"}, "properties": {"city_name": "Sorø", "mentions": 23}, "type": "Feature"}, {"geometry": {"coordinates": [17.633333, 59.85, 0], "type": "Point"}, "properties": {"city_name": "Uppsala", "mentions": 3}, "type": "Feature"}, {"geometry": {"coordinates": [5.039167, 60.641667000000005, 0], "type": "Point"}, "properties": {"city_name": "Manger", "mentions": 1}, "type": "Feature"}, {"geometry": {"coordinates": [10.669167, 59.43666700000001, 0], "type": "Point"}, "properties": {"city_name": "Moss", "mentions": 3}, "type": "Feature"}, {"geometry": {"coordinates": [12.119255, 47.857316, 0], "type": "Point"}, "properties": {"city_name": "Rosenheim", "mentions": 1}, "type": "Feature"}, {"geometry": {"coordinates": [9.098797, 54.19579399999999, 0], "type": "Point"}, "properties": {"city_name": "Heide", "mentions": 3}, "type": "Feature"}, {"geometry": {"coordinates": [9.683333, 59.2, 0], "type": "Point"}, "properties": {"city_name": "Skyer", "mentions": 1}, "type": "Feature"}, {"geometry": {"coordinates": [8.138863, 49.350089000000004, 0], "type": "Point"}, "properties": {"city_name": "Neustadt", "mentions": 2}, "type": "Feature"}, {"geometry": {"coordinates": [8.843695, 49.565583000000004, 0], "type": "Point"}, "properties": {"city_name": "Neustadt", "mentions": 2}, "type": "Feature"}, {"geometry": {"coordinates": [13.745794, 51.048562, 0], "type": "Point"}, "properties": {"city_name": "Dresden", "mentions": 9}, "type": "Feature"}, {"geometry": {"coordinates": [64.89409460000002, 18.3380965, 0], "type": "Point"}, "properties": {"city_name": "St. Thomas", "mentions": 1}, "type": "Feature"}, {"geometry": {"coordinates": [21.7, 65.833333, 0], "type": "Point"}, "properties": {"city_name": "Boden", "mentions": 1}, "type": "Feature"}, {"geometry": {"coordinates": [18.05, 59.333332999999996, 0], "type": "Point"}, "properties": {"city_name": "Stockholm", "mentions": 50}, "type": "Feature"}, {"geometry": {"coordinates": [10.591346000000001, 55.05873199999999, 0], "type": "Point"}, "properties": {"city_name": "Svendborg", "mentions": 5}, "type": "Feature"}, {"geometry": {"coordinates": [9.404291, 56.452819999999996, 0], "type": "Point"}, "properties": {"city_name": "Viborg", "mentions": 42}, "type": "Feature"}, {"geometry": {"coordinates": [9.952067999999999, 52.154121999999994, 0], "type": "Point"}, "properties": {"city_name": "Hildesheim", "mentions": 12}, "type": "Feature"}, {"geometry": {"coordinates": [9.439611, 54.78431, 0], "type": "Point"}, "properties": {"city_name": "Flensburg", "mentions": 1}, "type": "Feature"}, {"geometry": {"coordinates": [14.706635999999998, 55.10090699999999, 0], "type": "Point"}, "properties": {"city_name": "Rønne", "mentions": 30}, "type": "Feature"}, {"geometry": {"coordinates": [11.967112, 51.481473, 0], "type": "Point"}, "properties": {"city_name": "Halle", "mentions": 23}, "type": "Feature"}, {"geometry": {"coordinates": [10.895649, 56.41285, 0], "type": "Point"}, "properties": {"city_name": "Grenaa", "mentions": 1}, "type": "Feature"}, {"geometry": {"coordinates": [12.119234, 49.034512, 0], "type": "Point"}, "properties": {"city_name": "Regensburg", "mentions": 3}, "type": "Feature"}, {"geometry": {"coordinates": [8.684167, 50.115520000000004, 0], "type": "Point"}, "properties": {"city_name": "Frankfurt", "mentions": 7}, "type": "Feature"}, {"geometry": {"coordinates": [12.583333, 55.666667000000004, 0], "type": "Point"}, "properties": {"city_name": "København", "mentions": 145}, "type": "Feature"}, {"geometry": {"coordinates": [9.988917, 57.466322999999996, 0], "type": "Point"}, "properties": {"city_name": "Hjørring", "mentions": 4}, "type": "Feature"}, {"geometry": {"coordinates": [13.387857, 54.093106999999996, 0], "type": "Point"}, "properties": {"city_name": "Greifswald", "mentions": 1}, "type": "Feature"}, {"geometry": {"coordinates": [7.471678999999999, 51.360811, 0], "type": "Point"}, "properties": {"city_name": "Hagen", "mentions": 1}, "type": "Feature"}, {"geometry": {"coordinates": [6.41669, 60.63182, 0], "type": "Point"}, "properties": {"city_name": "Voss", "mentions": 1}, "type": "Feature"}, {"geometry": {"coordinates": [11.4, 62.583332999999996, 0], "type": "Point"}, "properties": {"city_name": "Røros", "mentions": 1}, "type": "Feature"}, {"geometry": {"coordinates": [6.084726, 50.774122, 0], "type": "Point"}, "properties": {"city_name": "Aachen", "mentions": 1}, "type": "Feature"}, {"geometry": {"coordinates": [8.766667, 58.460278, 0], "type": "Point"}, "properties": {"city_name": "Arendal", "mentions": 1}, "type": "Feature"}, {"geometry": {"coordinates": [10.394935, 55.393475, 0], "type": "Point"}, "properties": {"city_name": "Odense", "mentions": 49}, "type": "Feature"}, {"geometry": {"coordinates": [11.032831, 50.978695, 0], "type": "Point"}, "properties": {"city_name": "Erfurt", "mentions": 1}, "type": "Feature"}, {"geometry": {"coordinates": [11.32903, 50.980301000000004, 0], "type": "Point"}, "properties": {"city_name": "Weimar", "mentions": 2}, "type": "Feature"}, {"geometry": {"coordinates": [8.826754, 53.073789, 0], "type": "Point"}, "properties": {"city_name": "Bremen", "mentions": 27}, "type": "Feature"}, {"geometry": {"coordinates": [9.234908, 52.923425, 0], "type": "Point"}, "properties": {"city_name": "Verden", "mentions": 25}, "type": "Feature"}, {"geometry": {"coordinates": [12.386503999999999, 51.344190000000005, 0], "type": "Point"}, "properties": {"city_name": "Leipzig", "mentions": 3}, "type": "Feature"}, {"geometry": {"coordinates": [13.057122, 52.402246999999996, 0], "type": "Point"}, "properties": {"city_name": "Potsdam", "mentions": 5}, "type": "Feature"}, {"geometry": {"coordinates": [9.468121, 55.492943999999994, 0], "type": "Point"}, "properties": {"city_name": "Kolding", "mentions": 26}, "type": "Feature"}, {"geometry": {"coordinates": [12.583333, 55.666667000000004, 0], "type": "Point"}, "properties": {"city_name": "Kjøbenhavn", "mentions": 110}, "type": "Feature"}, {"geometry": {"coordinates": [12.266099, 57.108585999999995, 0], "type": "Point"}, "properties": {"city_name": "Varberg", "mentions": 5}, "type": "Feature"}, {"geometry": {"coordinates": [10.898514, 48.371538, 0], "type": "Point"}, "properties": {"city_name": "Augsburg", "mentions": 4}, "type": "Feature"}, {"geometry": {"coordinates": [10.607507, 54.140541000000006, 0], "type": "Point"}, "properties": {"city_name": "Eutin", "mentions": 3}, "type": "Feature"}, {"geometry": {"coordinates": [10.88883, 49.893174, 0], "type": "Point"}, "properties": {"city_name": "Bamberg", "mentions": 1}, "type": "Feature"}, {"geometry": {"coordinates": [9.744498, 55.499223, 0], "type": "Point"}, "properties": {"city_name": "Middelfart", "mentions": 2}, "type": "Feature"}, {"geometry": {"coordinates": [11.2, 62.5, 0], "type": "Point"}, "properties": {"city_name": "Os", "mentions": 7}, "type": "Feature"}, {"geometry": {"coordinates": [6.283333, 58.35, 0], "type": "Point"}, "properties": {"city_name": "Hauge", "mentions": 1}, "type": "Feature"}, {"geometry": {"coordinates": [7.84973, 47.996860999999996, 0], "type": "Point"}, "properties": {"city_name": "Freiburg", "mentions": 6}, "type": "Feature"}, {"geometry": {"coordinates": [21.995, 64.153, 0], "type": "Point"}, "properties": {"city_name": "Seltjarnarnes", "mentions": 1}, "type": "Feature"}, {"geometry": {"coordinates": [12.08054, 55.640094, 0], "type": "Point"}, "properties": {"city_name": "Roskilde", "mentions": 65}, "type": "Feature"}, {"geometry": {"coordinates": [11.25, 64.666667, 0], "type": "Point"}, "properties": {"city_name": "Dun", "mentions": 3}, "type": "Feature"}, {"geometry": {"coordinates": [10.470646, 55.245059, 0], "type": "Point"}, "properties": {"city_name": "Ringe", "mentions": 7}, "type": "Feature"}, {"geometry": {"coordinates": [13.088588, 54.315822999999995, 0], "type": "Point"}, "properties": {"city_name": "Stralsund", "mentions": 9}, "type": "Feature"}, {"geometry": {"coordinates": [9.220856, 52.646102, 0], "type": "Point"}, "properties": {"city_name": "Nienburg", "mentions": 1}, "type": "Feature"}, {"geometry": {"coordinates": [8.770694, 50.809044, 0], "type": "Point"}, "properties": {"city_name": "Marburg", "mentions": 3}, "type": "Feature"}, {"geometry": {"coordinates": [9.558598, 54.521561, 0], "type": "Point"}, "properties": {"city_name": "Schleswig", "mentions": 12}, "type": "Feature"}, {"geometry": {"coordinates": [8.214674, 53.141178000000004, 0], "type": "Point"}, "properties": {"city_name": "Oldenburg", "mentions": 18}, "type": "Feature"}, {"geometry": {"coordinates": [21.895, 64.135, 0], "type": "Point"}, "properties": {"city_name": "Reykjavik", "mentions": 2}, "type": "Feature"}, {"geometry": {"coordinates": [13.4, 52.516667000000005, 0], "type": "Point"}, "properties": {"city_name": "Berlin", "mentions": 24}, "type": "Feature"}, {"geometry": {"coordinates": [11.903917999999999, 55.01044, 0], "type": "Point"}, "properties": {"city_name": "Vordingborg", "mentions": 6}, "type": "Feature"}, {"geometry": {"coordinates": [12.0, 60.2, 0], "type": "Point"}, "properties": {"city_name": "Kongsvinger", "mentions": 1}, "type": "Feature"}, {"geometry": {"coordinates": [9.059913, 54.482518000000006, 0], "type": "Point"}, "properties": {"city_name": "Husum", "mentions": 20}, "type": "Feature"}, {"geometry": {"coordinates": [8.630908, 53.051103000000005, 0], "type": "Point"}, "properties": {"city_name": "Delmenhorst", "mentions": 7}, "type": "Feature"}, {"geometry": {"coordinates": [12.15, 65.3, 0], "type": "Point"}, "properties": {"city_name": "Vik", "mentions": 1}, "type": "Feature"}, {"geometry": {"coordinates": [8.279096000000001, 49.984188, 0], "type": "Point"}, "properties": {"city_name": "Mainz", "mentions": 5}, "type": "Feature"}, {"geometry": {"coordinates": [16.9945, 68.52619, 0], "type": "Point"}, "properties": {"city_name": "Bogen", "mentions": 36}, "type": "Feature"}, {"geometry": {"coordinates": [12.116667, 67.516667, 0], "type": "Point"}, "properties": {"city_name": "Røst", "mentions": 4}, "type": "Feature"}, {"geometry": {"coordinates": [10.716667, 59.38333299999999, 0], "type": "Point"}, "properties": {"city_name": "Rygge", "mentions": 1}, "type": "Feature"}, {"geometry": {"coordinates": [8.542002, 52.028332, 0], "type": "Point"}, "properties": {"city_name": "Bielefeld", "mentions": 2}, "type": "Feature"}, {"geometry": {"coordinates": [8.620799, 56.359471, 0], "type": "Point"}, "properties": {"city_name": "Holstebro", "mentions": 2}, "type": "Feature"}, {"geometry": {"coordinates": [9.180819, 48.782343, 0], "type": "Point"}, "properties": {"city_name": "Stuttgart", "mentions": 3}, "type": "Feature"}, {"geometry": {"coordinates": [12.021482, 55.967670999999996, 0], "type": "Point"}, "properties": {"city_name": "Frederiksværk", "mentions": 1}, "type": "Feature"}, {"geometry": {"coordinates": [7.533333, 59.2, 0], "type": "Point"}, "properties": {"city_name": "Valle", "mentions": 3}, "type": "Feature"}, {"geometry": {"coordinates": [9.789361999999999, 53.667324, 0], "type": "Point"}, "properties": {"city_name": "Pinneberg", "mentions": 3}, "type": "Feature"}], "type": "FeatureCollection"}